{
  "type": "FeatureCollection",
  "features": [
    {
      "type": "Feature",
      "geometry": { "type": "Point", "coordinates": [74.3111, 33.3672] },
      "properties": {
        "State": "JAMMU AND KASHMIR",
        "ULB_City": "RAJAURI",
        "latitude": "33.3672",
        "longitude": "74.3111",
        "Status": "Completed",
        "DumpsiteArea": "0.375",
        "WasteQuantity": "500.000"
      }
    },
    {
      "type": "Feature",
      "geometry": { "type": "Point", "coordinates": [75.44, 32.34] },
      "properties": {
        "State": "JAMMU AND KASHMIR",
        "ULB_City": "PAROLE",
        "latitude": "32.34",
        "longitude": "75.44",
        "Status": "Remediation Not Proposed",
        "DumpsiteArea": "0.62",
        "DumpsiteCurrentHeight": "1",
        "WasteQuantity": "400.000"
      }
    },
    {
      "type": "Feature",
      "geometry": { "type": "Point", "coordinates": [75.26, 32.45] },
      "properties": {
        "State": "JAMMU AND KASHMIR",
        "ULB_City": "HIRANAGAR",
        "latitude": "32.45",
        "longitude": "75.26",
        "Status": "Remediation Not Proposed",
        "DumpsiteArea": "0.50",
        "DumpsiteCurrentHeight": "1",
        "WasteQuantity": "400.000"
      }
    },
    {
      "type": "Feature",
      "geometry": { "type": "Point", "coordinates": [74.5487, 34.1562] },
      "properties": {
        "State": "JAMMU AND KASHMIR",
        "ULB_City": "PATTAN (MC)",
        "latitude": "34.1562",
        "longitude": "74.5487",
        "Status": "On-Going",
        "DumpsiteArea": "2",
        "DumpsiteCurrentHeight": "30",
        "WasteQuantity": "2500.000"
      }
    },
    {
      "type": "Feature",
      "geometry": { "type": "Point", "coordinates": [74.6322, 34.403] },
      "properties": {
        "State": "JAMMU AND KASHMIR",
        "ULB_City": "Bandipore (MC)",
        "latitude": "34.403",
        "longitude": "74.6322",
        "Status": "On-Going",
        "DumpsiteArea": "NA",
        "DumpsiteCurrentHeight": "NA",
        "WasteQuantity": "0.000"
      }
    },
    {
      "type": "Feature",
      "geometry": { "type": "Point", "coordinates": [74.8035, 34.1416] },
      "properties": {
        "State": "JAMMU AND KASHMIR",
        "ULB_City": "SRINAGAR",
        "latitude": "34.1416",
        "longitude": "74.8035",
        "Status": "On-Going",
        "DumpsiteArea": "15",
        "DumpsiteCurrentHeight": "25",
        "WasteQuantity": "1000000.000"
      }
    },
    {
      "type": "Feature",
      "geometry": { "type": "Point", "coordinates": [75.0147, 34.0249] },
      "properties": {
        "State": "JAMMU AND KASHMIR",
        "ULB_City": "KHREW",
        "latitude": "34.0249",
        "longitude": "75.0147",
        "Status": "On-Going",
        "DumpsiteArea": "13",
        "DumpsiteCurrentHeight": "2",
        "WasteQuantity": "4.000"
      }
    },
    {
      "type": "Feature",
      "geometry": { "type": "Point", "coordinates": [74.8916, 33.8716] },
      "properties": {
        "State": "JAMMU AND KASHMIR",
        "ULB_City": "PULWAMA (MC)",
        "latitude": "33.8716",
        "longitude": "74.8916",
        "Status": "On-Going",
        "DumpsiteArea": "3",
        "DumpsiteCurrentHeight": "10",
        "WasteQuantity": "0.000"
      }
    },
    {
      "type": "Feature",
      "geometry": { "type": "Point", "coordinates": [75.319, 33.9784] },
      "properties": {
        "State": "JAMMU AND KASHMIR",
        "ULB_City": "PAHALGAM",
        "latitude": "33.9784",
        "longitude": "75.319",
        "Status": "On-Going",
        "DumpsiteArea": "1.77",
        "WasteQuantity": "520.000"
      }
    },
    {
      "type": "Feature",
      "geometry": { "type": "Point", "coordinates": [75.18, 33.59] },
      "properties": {
        "State": "JAMMU AND KASHMIR",
        "ULB_City": "QAZI GUND",
        "latitude": "33.59",
        "longitude": "75.18",
        "Status": "Remediation Not Proposed",
        "DumpsiteArea": "0.88",
        "WasteQuantity": "800.000"
      }
    },
    {
      "type": "Feature",
      "geometry": { "type": "Point", "coordinates": [75.0341, 33.7508] },
      "properties": {
        "State": "JAMMU AND KASHMIR",
        "ULB_City": "FRISAL (MC)",
        "latitude": "33.7508",
        "longitude": "75.0341",
        "Status": "Remediation Not Proposed",
        "DumpsiteArea": "0.5",
        "DumpsiteCurrentHeight": "3",
        "WasteQuantity": "15.000"
      }
    },
    {
      "type": "Feature",
      "geometry": { "type": "Point", "coordinates": [75.0137, 33.7236] },
      "properties": {
        "State": "JAMMU AND KASHMIR",
        "ULB_City": "YARI PORA",
        "latitude": "33.7236",
        "longitude": "75.0137",
        "Status": "Remediation Not Proposed",
        "DumpsiteArea": "0.26",
        "DumpsiteCurrentHeight": "3.5",
        "WasteQuantity": "7000.000"
      }
    },
    {
      "type": "Feature",
      "geometry": { "type": "Point", "coordinates": [74.9324, 32.9746] },
      "properties": {
        "State": "JAMMU AND KASHMIR",
        "ULB_City": "KATRA (MC)",
        "latitude": "32.9746",
        "longitude": "74.9324",
        "Status": "On-Going",
        "DumpsiteArea": "1.5",
        "DumpsiteCurrentHeight": "7",
        "WasteQuantity": "65000.000"
      }
    },
    {
      "type": "Feature",
      "geometry": { "type": "Point", "coordinates": [74.8272, 32.7216] },
      "properties": {
        "State": "JAMMU AND KASHMIR",
        "ULB_City": "JAMMU",
        "latitude": "32.7216",
        "longitude": "74.8272",
        "Status": "Completed",
        "DumpsiteArea": "32",
        "DumpsiteCurrentHeight": "3",
        "WasteQuantity": "120000.000"
      }
    },
    {
      "type": "Feature",
      "geometry": { "type": "Point", "coordinates": [75.9601, 32.5333] },
      "properties": {
        "State": "HIMACHAL PRADESH",
        "ULB_City": "DALHOUSIE",
        "latitude": "32.5333",
        "longitude": "75.9601",
        "Status": "On-Going",
        "DumpsiteArea": "0.22",
        "WasteQuantity": "36.000"
      }
    },
    {
      "type": "Feature",
      "geometry": { "type": "Point", "coordinates": [76.021, 32.4274] },
      "properties": {
        "State": "HIMACHAL PRADESH",
        "ULB_City": "CHUARI KHAS",
        "latitude": "32.4274",
        "longitude": "76.021",
        "Status": "On-Going",
        "DumpsiteArea": "0.88",
        "WasteQuantity": "525.000"
      }
    },
    {
      "type": "Feature",
      "geometry": { "type": "Point", "coordinates": [76.3151, 32.2164] },
      "properties": {
        "State": "HIMACHAL PRADESH",
        "ULB_City": "DHARMSALA (M CL)",
        "latitude": "32.2164",
        "longitude": "76.3151",
        "Status": "Approvedbycentre",
        "DumpsiteArea": "1.7",
        "DumpsiteCurrentHeight": "180",
        "WasteQuantity": "40000.000"
      }
    },
    {
      "type": "Feature",
      "geometry": { "type": "Point", "coordinates": [77.1919, 32.2173] },
      "properties": {
        "State": "HIMACHAL PRADESH",
        "ULB_City": "MANALI",
        "latitude": "32.2173",
        "longitude": "77.1919",
        "Status": "Approvedbycentre",
        "DumpsiteArea": "0.99",
        "WasteQuantity": "40000.000"
      }
    },
    {
      "type": "Feature",
      "geometry": { "type": "Point", "coordinates": [77.1251, 31.9202] },
      "properties": {
        "State": "HIMACHAL PRADESH",
        "ULB_City": "KULLU (M CL)",
        "latitude": "31.9202",
        "longitude": "77.1251",
        "Status": "Approvedbycentre",
        "DumpsiteArea": "4.6",
        "DumpsiteCurrentHeight": "4",
        "WasteQuantity": "42000.000"
      }
    },
    {
      "type": "Feature",
      "geometry": { "type": "Point", "coordinates": [76.5176, 31.6616] },
      "properties": {
        "State": "HIMACHAL PRADESH",
        "ULB_City": "HAMIRPUR",
        "latitude": "31.6616",
        "longitude": "76.5176",
        "Status": "Proposed & Yet To Start",
        "DumpsiteArea": "0.46",
        "DumpsiteCurrentHeight": "15",
        "WasteQuantity": "15000.000"
      }
    },
    {
      "type": "Feature",
      "geometry": { "type": "Point", "coordinates": [76.2513, 31.4517] },
      "properties": {
        "State": "HIMACHAL PRADESH",
        "ULB_City": "UNA (M CL)",
        "latitude": "31.4517",
        "longitude": "76.2513",
        "Status": "Approvedbycentre",
        "DumpsiteArea": "3.8",
        "DumpsiteCurrentHeight": "3",
        "WasteQuantity": "1200.000"
      }
    },
    {
      "type": "Feature",
      "geometry": { "type": "Point", "coordinates": [76.3036, 31.351] },
      "properties": {
        "State": "HIMACHAL PRADESH",
        "ULB_City": "SANTOKHGARH",
        "latitude": "31.351",
        "longitude": "76.3036",
        "Status": "Approvedbycentre",
        "DumpsiteArea": "0.99",
        "DumpsiteCurrentHeight": "1",
        "WasteQuantity": "2300.000"
      }
    },
    {
      "type": "Feature",
      "geometry": { "type": "Point", "coordinates": [76.776, 30.9469] },
      "properties": {
        "State": "HIMACHAL PRADESH",
        "ULB_City": "BADDI",
        "latitude": "30.9469",
        "longitude": "76.776",
        "Status": "On-Going",
        "DumpsiteArea": "2.5",
        "WasteQuantity": "40000.000"
      }
    },
    {
      "type": "Feature",
      "geometry": { "type": "Point", "coordinates": [77.1289, 30.941] },
      "properties": {
        "State": "HIMACHAL PRADESH",
        "ULB_City": "SOLAN",
        "latitude": "30.941",
        "longitude": "77.1289",
        "Status": "Approvedbycentre",
        "DumpsiteArea": "3.42",
        "DumpsiteCurrentHeight": "150",
        "WasteQuantity": "66179.000"
      }
    },
    {
      "type": "Feature",
      "geometry": { "type": "Point", "coordinates": [75.4688, 32.1272] },
      "properties": {
        "State": "PUNJAB",
        "ULB_City": "DINA NAGAR",
        "latitude": "32.1272",
        "longitude": "75.4688",
        "Status": "On-Going",
        "DumpsiteArea": "14.9",
        "WasteQuantity": "22000.000"
      }
    },
    {
      "type": "Feature",
      "geometry": { "type": "Point", "coordinates": [75.4405, 31.9482] },
      "properties": {
        "State": "PUNJAB",
        "ULB_City": "GURDASPUR",
        "latitude": "31.9482",
        "longitude": "75.4405",
        "Status": "On-Going",
        "DumpsiteArea": "15",
        "DumpsiteCurrentHeight": "10",
        "WasteQuantity": "50000.000"
      }
    },
    {
      "type": "Feature",
      "geometry": { "type": "Point", "coordinates": [74.9705, 31.8328] },
      "properties": {
        "State": "PUNJAB",
        "ULB_City": "FATEHGARH CHURIAN (M CL)",
        "latitude": "31.8328",
        "longitude": "74.9705",
        "Status": "On-Going",
        "DumpsiteArea": "3",
        "DumpsiteCurrentHeight": "1.5",
        "WasteQuantity": "13000.000"
      }
    },
    {
      "type": "Feature",
      "geometry": { "type": "Point", "coordinates": [75.206, 31.8117] },
      "properties": {
        "State": "PUNJAB",
        "ULB_City": "BATALA (M CL)",
        "latitude": "31.8117",
        "longitude": "75.206",
        "Status": "On-Going",
        "DumpsiteArea": "1",
        "DumpsiteCurrentHeight": "10",
        "WasteQuantity": "10777.000"
      }
    },
    {
      "type": "Feature",
      "geometry": { "type": "Point", "coordinates": [75.1951, 31.8137] },
      "properties": {
        "State": "PUNJAB",
        "ULB_City": "BATALA (M CL)",
        "latitude": "31.8137",
        "longitude": "75.1951",
        "Status": "On-Going",
        "DumpsiteArea": "0.68",
        "DumpsiteCurrentHeight": "4",
        "WasteQuantity": "2572.000"
      }
    },
    {
      "type": "Feature",
      "geometry": { "type": "Point", "coordinates": [75.375, 31.817] },
      "properties": {
        "State": "PUNJAB",
        "ULB_City": "QADIAN",
        "latitude": "31.817",
        "longitude": "75.375",
        "Status": "Completed",
        "DumpsiteArea": "3",
        "DumpsiteCurrentHeight": "1",
        "WasteQuantity": "8310.000"
      }
    },
    {
      "type": "Feature",
      "geometry": { "type": "Point", "coordinates": [75.474, 31.6861] },
      "properties": {
        "State": "PUNJAB",
        "ULB_City": "SRI HARGOBINDPUR",
        "latitude": "31.6861",
        "longitude": "75.474",
        "Status": "On-Going",
        "DumpsiteArea": "0.13",
        "DumpsiteCurrentHeight": "0.2",
        "WasteQuantity": "0.000"
      }
    },
    {
      "type": "Feature",
      "geometry": { "type": "Point", "coordinates": [75.1193, 32.0222] },
      "properties": {
        "State": "PUNJAB",
        "ULB_City": "DERA BABA NANAK",
        "latitude": "32.0222",
        "longitude": "75.1193",
        "Status": "On-Going",
        "DumpsiteArea": "4",
        "DumpsiteCurrentHeight": "0.5",
        "WasteQuantity": "1200.000"
      }
    },
    {
      "type": "Feature",
      "geometry": { "type": "Point", "coordinates": [75.5011, 31.5476] },
      "properties": {
        "State": "PUNJAB",
        "ULB_City": "BHULATH",
        "latitude": "31.5476",
        "longitude": "75.5011",
        "Status": "On-Going",
        "DumpsiteArea": "1.5",
        "DumpsiteCurrentHeight": "1",
        "WasteQuantity": "1500.000"
      }
    },
    {
      "type": "Feature",
      "geometry": { "type": "Point", "coordinates": [75.5235, 31.6262] },
      "properties": {
        "State": "PUNJAB",
        "ULB_City": "BEGOWAL (NP)",
        "latitude": "31.6262",
        "longitude": "75.5235",
        "Status": "Completed",
        "DumpsiteArea": "2",
        "DumpsiteCurrentHeight": "1.5",
        "WasteQuantity": "600.000"
      }
    },
    {
      "type": "Feature",
      "geometry": { "type": "Point", "coordinates": [75.3672, 31.3855] },
      "properties": {
        "State": "PUNJAB",
        "ULB_City": "KAPURTHALA",
        "latitude": "31.3855",
        "longitude": "75.3672",
        "Status": "On-Going",
        "DumpsiteArea": "2.5",
        "WasteQuantity": "97820.000"
      }
    },
    {
      "type": "Feature",
      "geometry": { "type": "Point", "coordinates": [75.3, 31.5085] },
      "properties": {
        "State": "PUNJAB",
        "ULB_City": "DHILWAN",
        "latitude": "31.5085",
        "longitude": "75.3",
        "Status": "On-Going",
        "DumpsiteArea": "1",
        "DumpsiteCurrentHeight": "3",
        "WasteQuantity": "8000.000"
      }
    },
    {
      "type": "Feature",
      "geometry": { "type": "Point", "coordinates": [75.1971, 31.1975] },
      "properties": {
        "State": "PUNJAB",
        "ULB_City": "SULTANPUR",
        "latitude": "31.1975",
        "longitude": "75.1971",
        "Status": "Completed",
        "DumpsiteArea": "3",
        "DumpsiteCurrentHeight": "2",
        "WasteQuantity": "9000.000"
      }
    },
    {
      "type": "Feature",
      "geometry": { "type": "Point", "coordinates": [75.7629, 31.2795] },
      "properties": {
        "State": "PUNJAB",
        "ULB_City": "PHAGWARA",
        "latitude": "31.2795",
        "longitude": "75.7629",
        "Status": "On-Going",
        "DumpsiteArea": "4",
        "DumpsiteCurrentHeight": "9",
        "WasteQuantity": "58000.000"
      }
    },
    {
      "type": "Feature",
      "geometry": { "type": "Point", "coordinates": [75.4269, 31.5567] },
      "properties": {
        "State": "PUNJAB",
        "ULB_City": "NADALA",
        "latitude": "31.5567",
        "longitude": "75.4269",
        "Status": "On-Going",
        "DumpsiteArea": "1.5",
        "WasteQuantity": "550.000"
      }
    },
    {
      "type": "Feature",
      "geometry": { "type": "Point", "coordinates": [75.223, 31.1727] },
      "properties": {
        "State": "PUNJAB",
        "ULB_City": "LOHIAN KHASS",
        "latitude": "31.1727",
        "longitude": "75.223",
        "Status": "Completed",
        "DumpsiteArea": "1",
        "DumpsiteCurrentHeight": "0.01",
        "WasteQuantity": "45.000"
      }
    },
    {
      "type": "Feature",
      "geometry": { "type": "Point", "coordinates": [75.3224, 31.0714] },
      "properties": {
        "State": "PUNJAB",
        "ULB_City": "SHAHKOT",
        "latitude": "31.0714",
        "longitude": "75.3224",
        "Status": "Completed",
        "DumpsiteArea": "0.7",
        "DumpsiteCurrentHeight": "0.4",
        "WasteQuantity": "1000.000"
      }
    },
    {
      "type": "Feature",
      "geometry": { "type": "Point", "coordinates": [75.4723, 31.1322] },
      "properties": {
        "State": "PUNJAB",
        "ULB_City": "NAKODAR",
        "latitude": "31.1322",
        "longitude": "75.4723",
        "Status": "Completed",
        "DumpsiteArea": "1",
        "DumpsiteCurrentHeight": "3",
        "WasteQuantity": "1600.000"
      }
    },
    {
      "type": "Feature",
      "geometry": { "type": "Point", "coordinates": [75.7609, 31.1221] },
      "properties": {
        "State": "PUNJAB",
        "ULB_City": "GORAYA",
        "latitude": "31.1221",
        "longitude": "75.7609",
        "Status": "On-Going",
        "DumpsiteArea": "3",
        "DumpsiteCurrentHeight": "6",
        "WasteQuantity": "4380.000"
      }
    },
    {
      "type": "Feature",
      "geometry": { "type": "Point", "coordinates": [75.7915, 31.0264] },
      "properties": {
        "State": "PUNJAB",
        "ULB_City": "PHILLAUR (M CL)",
        "latitude": "31.0264",
        "longitude": "75.7915",
        "Status": "Completed",
        "DumpsiteArea": "3",
        "DumpsiteCurrentHeight": "15",
        "WasteQuantity": "8190.000"
      }
    },
    {
      "type": "Feature",
      "geometry": { "type": "Point", "coordinates": [75.5851, 31.086] },
      "properties": {
        "State": "PUNJAB",
        "ULB_City": "NURMAHAL",
        "latitude": "31.086",
        "longitude": "75.5851",
        "Status": "On-Going",
        "DumpsiteArea": "1",
        "DumpsiteCurrentHeight": "8",
        "WasteQuantity": "2500.000"
      }
    },
    {
      "type": "Feature",
      "geometry": { "type": "Point", "coordinates": [75.6439, 31.28] },
      "properties": {
        "State": "PUNJAB",
        "ULB_City": "JALANDHAR CANTT.",
        "latitude": "31.28",
        "longitude": "75.6439",
        "Status": "On-Going",
        "DumpsiteArea": "88",
        "DumpsiteCurrentHeight": "0.2",
        "WasteQuantity": "40000.000"
      }
    },
    {
      "type": "Feature",
      "geometry": { "type": "Point", "coordinates": [75.5277, 31.349] },
      "properties": {
        "State": "PUNJAB",
        "ULB_City": "JALANDHAR",
        "latitude": "31.349",
        "longitude": "75.5277",
        "Status": "On-Going",
        "DumpsiteArea": "16.25",
        "DumpsiteCurrentHeight": "12",
        "WasteQuantity": "800000.000"
      }
    },
    {
      "type": "Feature",
      "geometry": { "type": "Point", "coordinates": [75.6518, 31.4281] },
      "properties": {
        "State": "PUNJAB",
        "ULB_City": "ALAWALPUR",
        "latitude": "31.4281",
        "longitude": "75.6518",
        "Status": "Completed",
        "DumpsiteArea": "4.12",
        "DumpsiteCurrentHeight": "2",
        "WasteQuantity": "200.000"
      }
    },
    {
      "type": "Feature",
      "geometry": { "type": "Point", "coordinates": [75.7126, 31.4285] },
      "properties": {
        "State": "PUNJAB",
        "ULB_City": "ADAMPUR (M CL)",
        "latitude": "31.4285",
        "longitude": "75.7126",
        "Status": "On-Going",
        "DumpsiteArea": "4.2",
        "DumpsiteCurrentHeight": "2",
        "WasteQuantity": "650.000"
      }
    },
    {
      "type": "Feature",
      "geometry": { "type": "Point", "coordinates": [75.5096, 31.4618] },
      "properties": {
        "State": "PUNJAB",
        "ULB_City": "KARTARPUR",
        "latitude": "31.4618",
        "longitude": "75.5096",
        "Status": "Completed",
        "DumpsiteArea": "1",
        "DumpsiteCurrentHeight": "1",
        "WasteQuantity": "3600.000"
      }
    },
    {
      "type": "Feature",
      "geometry": { "type": "Point", "coordinates": [75.6429, 31.5395] },
      "properties": {
        "State": "PUNJAB",
        "ULB_City": "BHOGPUR",
        "latitude": "31.5395",
        "longitude": "75.6429",
        "Status": "On-Going",
        "DumpsiteArea": "2",
        "DumpsiteCurrentHeight": "1.5",
        "WasteQuantity": "12000.000"
      }
    },
    {
      "type": "Feature",
      "geometry": { "type": "Point", "coordinates": [75.4535, 31.0234] },
      "properties": {
        "State": "PUNJAB",
        "ULB_City": "MEHATPUR",
        "latitude": "31.0234",
        "longitude": "75.4535",
        "Status": "Completed",
        "DumpsiteArea": "1",
        "DumpsiteCurrentHeight": "1.1",
        "WasteQuantity": "1700.000"
      }
    },
    {
      "type": "Feature",
      "geometry": { "type": "Point", "coordinates": [75.6529, 31.0674] },
      "properties": {
        "State": "PUNJAB",
        "ULB_City": "BILGA",
        "latitude": "31.0674",
        "longitude": "75.6529",
        "Status": "Completed",
        "DumpsiteArea": "2",
        "DumpsiteCurrentHeight": "4",
        "WasteQuantity": "200.000"
      }
    },
    {
      "type": "Feature",
      "geometry": { "type": "Point", "coordinates": [75.6414, 31.061] },
      "properties": {
        "State": "PUNJAB",
        "ULB_City": "BILGA",
        "latitude": "31.061",
        "longitude": "75.6414",
        "Status": "Completed",
        "DumpsiteArea": "0.5",
        "WasteQuantity": "10.000"
      }
    },
    {
      "type": "Feature",
      "geometry": { "type": "Point", "coordinates": [75.6364, 31.664] },
      "properties": {
        "State": "PUNJAB",
        "ULB_City": "URMAR TANDA",
        "latitude": "31.664",
        "longitude": "75.6364",
        "Status": "Completed",
        "DumpsiteArea": "1",
        "DumpsiteCurrentHeight": "4",
        "WasteQuantity": "15000.000"
      }
    },
    {
      "type": "Feature",
      "geometry": { "type": "Point", "coordinates": [75.6581, 31.7945] },
      "properties": {
        "State": "PUNJAB",
        "ULB_City": "DASUA (M CL)",
        "latitude": "31.7945",
        "longitude": "75.6581",
        "Status": "Completed",
        "DumpsiteArea": "2",
        "DumpsiteCurrentHeight": "5",
        "WasteQuantity": "1000.000"
      }
    },
    {
      "type": "Feature",
      "geometry": { "type": "Point", "coordinates": [75.8415, 31.6311] },
      "properties": {
        "State": "PUNJAB",
        "ULB_City": "HARIANA",
        "latitude": "31.6311",
        "longitude": "75.8415",
        "Status": "On-Going",
        "DumpsiteArea": "2.5",
        "DumpsiteCurrentHeight": "4",
        "WasteQuantity": "3600.000"
      }
    },
    {
      "type": "Feature",
      "geometry": { "type": "Point", "coordinates": [75.8838, 31.5093] },
      "properties": {
        "State": "PUNJAB",
        "ULB_City": "HOSHIARPUR (M CL)",
        "latitude": "31.5093",
        "longitude": "75.8838",
        "Status": "On-Going",
        "DumpsiteArea": "23",
        "DumpsiteCurrentHeight": "3.81",
        "WasteQuantity": "120600.000"
      }
    },
    {
      "type": "Feature",
      "geometry": { "type": "Point", "coordinates": [75.7672, 31.4909] },
      "properties": {
        "State": "PUNJAB",
        "ULB_City": "SHAM CHAURASI",
        "latitude": "31.4909",
        "longitude": "75.7672",
        "Status": "On-Going",
        "DumpsiteArea": "4.25",
        "DumpsiteCurrentHeight": "3.65",
        "WasteQuantity": "2500.000"
      }
    },
    {
      "type": "Feature",
      "geometry": { "type": "Point", "coordinates": [76.0258, 31.3765] },
      "properties": {
        "State": "PUNJAB",
        "ULB_City": "MAHILPUR",
        "latitude": "31.3765",
        "longitude": "76.0258",
        "Status": "Completed",
        "DumpsiteArea": "0.26",
        "DumpsiteCurrentHeight": "2",
        "WasteQuantity": "100.000"
      }
    },
    {
      "type": "Feature",
      "geometry": { "type": "Point", "coordinates": [76.1294, 31.2123] },
      "properties": {
        "State": "PUNJAB",
        "ULB_City": "GARHSHANKAR",
        "latitude": "31.2123",
        "longitude": "76.1294",
        "Status": "Completed",
        "DumpsiteArea": "1",
        "DumpsiteCurrentHeight": "2",
        "WasteQuantity": "16200.000"
      }
    },
    {
      "type": "Feature",
      "geometry": { "type": "Point", "coordinates": [75.8456, 31.9532] },
      "properties": {
        "State": "PUNJAB",
        "ULB_City": "TALWARA",
        "latitude": "31.9532",
        "longitude": "75.8456",
        "Status": "Completed",
        "DumpsiteArea": "1",
        "DumpsiteCurrentHeight": "0.5",
        "WasteQuantity": "25.000"
      }
    },
    {
      "type": "Feature",
      "geometry": { "type": "Point", "coordinates": [76.0092, 31.1984] },
      "properties": {
        "State": "PUNJAB",
        "ULB_City": "BANGA",
        "latitude": "31.1984",
        "longitude": "76.0092",
        "Status": "On-Going",
        "DumpsiteArea": "1.2",
        "DumpsiteCurrentHeight": "1",
        "WasteQuantity": "9500.000"
      }
    },
    {
      "type": "Feature",
      "geometry": { "type": "Point", "coordinates": [76.1025, 31.1261] },
      "properties": {
        "State": "PUNJAB",
        "ULB_City": "NAWANSHAHR",
        "latitude": "31.1261",
        "longitude": "76.1025",
        "Status": "On-Going",
        "DumpsiteArea": "2",
        "DumpsiteCurrentHeight": "5",
        "WasteQuantity": "29200.000"
      }
    },
    {
      "type": "Feature",
      "geometry": { "type": "Point", "coordinates": [76.1169, 31.0717] },
      "properties": {
        "State": "PUNJAB",
        "ULB_City": "RAHON",
        "latitude": "31.0717",
        "longitude": "76.1169",
        "Status": "On-Going",
        "DumpsiteArea": "0.6",
        "WasteQuantity": "1700.000"
      }
    },
    {
      "type": "Feature",
      "geometry": { "type": "Point", "coordinates": [76.3045, 31.0802] },
      "properties": {
        "State": "PUNJAB",
        "ULB_City": "BALACHAUR (M CL)",
        "latitude": "31.0802",
        "longitude": "76.3045",
        "Status": "On-Going",
        "DumpsiteArea": "1.5",
        "DumpsiteCurrentHeight": "2",
        "WasteQuantity": "8500.000"
      }
    },
    {
      "type": "Feature",
      "geometry": { "type": "Point", "coordinates": [76.3958, 30.6984] },
      "properties": {
        "State": "PUNJAB",
        "ULB_City": "BASSI PATHANA",
        "latitude": "30.6984",
        "longitude": "76.3958",
        "Status": "Completed",
        "DumpsiteArea": "3",
        "DumpsiteCurrentHeight": "1",
        "WasteQuantity": "300.000"
      }
    },
    {
      "type": "Feature",
      "geometry": { "type": "Point", "coordinates": [76.3807, 30.6362] },
      "properties": {
        "State": "PUNJAB",
        "ULB_City": "SIRHIND FATEHGARH SAHIB",
        "latitude": "30.6362",
        "longitude": "76.3807",
        "Status": "On-Going",
        "DumpsiteArea": "1",
        "DumpsiteCurrentHeight": "5",
        "WasteQuantity": "2600.000"
      }
    },
    {
      "type": "Feature",
      "geometry": { "type": "Point", "coordinates": [76.2246, 30.6128] },
      "properties": {
        "State": "PUNJAB",
        "ULB_City": "AMLOH",
        "latitude": "30.6128",
        "longitude": "76.2246",
        "Status": "On-Going",
        "DumpsiteArea": "1.5",
        "DumpsiteCurrentHeight": "3",
        "WasteQuantity": "20220.000"
      }
    },
    {
      "type": "Feature",
      "geometry": { "type": "Point", "coordinates": [76.29, 30.668] },
      "properties": {
        "State": "PUNJAB",
        "ULB_City": "GOBINDGARH",
        "latitude": "30.668",
        "longitude": "76.29",
        "Status": "On-Going",
        "DumpsiteArea": "2.5",
        "DumpsiteCurrentHeight": "2",
        "WasteQuantity": "49000.000"
      }
    },
    {
      "type": "Feature",
      "geometry": { "type": "Point", "coordinates": [76.3615, 30.8182] },
      "properties": {
        "State": "PUNJAB",
        "ULB_City": "KHAMANON",
        "latitude": "30.8182",
        "longitude": "76.3615",
        "Status": "Completed",
        "DumpsiteArea": "3",
        "DumpsiteCurrentHeight": "2",
        "WasteQuantity": "410.000"
      }
    },
    {
      "type": "Feature",
      "geometry": { "type": "Point", "coordinates": [76.2162, 30.9118] },
      "properties": {
        "State": "PUNJAB",
        "ULB_City": "MACHHIWARA",
        "latitude": "30.9118",
        "longitude": "76.2162",
        "Status": "On-Going",
        "DumpsiteArea": "3",
        "DumpsiteCurrentHeight": "2",
        "WasteQuantity": "35140.000"
      }
    },
    {
      "type": "Feature",
      "geometry": { "type": "Point", "coordinates": [76.1939, 30.8463] },
      "properties": {
        "State": "PUNJAB",
        "ULB_City": "SAMRALA",
        "latitude": "30.8463",
        "longitude": "76.1939",
        "Status": "On-Going",
        "DumpsiteArea": "3",
        "DumpsiteCurrentHeight": "6",
        "WasteQuantity": "16000.000"
      }
    },
    {
      "type": "Feature",
      "geometry": { "type": "Point", "coordinates": [76.1882, 30.7079] },
      "properties": {
        "State": "PUNJAB",
        "ULB_City": "KHANNA (M CL)",
        "latitude": "30.7079",
        "longitude": "76.1882",
        "Status": "On-Going",
        "DumpsiteArea": "2",
        "DumpsiteCurrentHeight": "2.84",
        "WasteQuantity": "90000.000"
      }
    },
    {
      "type": "Feature",
      "geometry": { "type": "Point", "coordinates": [76.068, 30.7169] },
      "properties": {
        "State": "PUNJAB",
        "ULB_City": "PAYAL",
        "latitude": "30.7169",
        "longitude": "76.068",
        "Status": "Completed",
        "DumpsiteArea": "1",
        "DumpsiteCurrentHeight": "1.3",
        "WasteQuantity": "6350.000"
      }
    },
    {
      "type": "Feature",
      "geometry": { "type": "Point", "coordinates": [75.9216, 30.6346] },
      "properties": {
        "State": "PUNJAB",
        "ULB_City": "MALOUD",
        "latitude": "30.6346",
        "longitude": "75.9216",
        "Status": "On-Going",
        "DumpsiteArea": "1.5",
        "DumpsiteCurrentHeight": "5",
        "WasteQuantity": "5800.000"
      }
    },
    {
      "type": "Feature",
      "geometry": { "type": "Point", "coordinates": [76.0379, 30.7943] },
      "properties": {
        "State": "PUNJAB",
        "ULB_City": "DORAHA (M CL)",
        "latitude": "30.7943",
        "longitude": "76.0379",
        "Status": "Completed",
        "DumpsiteArea": "4",
        "DumpsiteCurrentHeight": "15",
        "WasteQuantity": "8000.000"
      }
    },
    {
      "type": "Feature",
      "geometry": { "type": "Point", "coordinates": [75.9796, 30.8327] },
      "properties": {
        "State": "PUNJAB",
        "ULB_City": "SAHNEWAL",
        "latitude": "30.8327",
        "longitude": "75.9796",
        "Status": "Completed",
        "DumpsiteArea": "1",
        "DumpsiteCurrentHeight": "3",
        "WasteQuantity": "6610.000"
      }
    },
    {
      "type": "Feature",
      "geometry": { "type": "Point", "coordinates": [75.9077, 30.9304] },
      "properties": {
        "State": "PUNJAB",
        "ULB_City": "LUDHIANA",
        "latitude": "30.9304",
        "longitude": "75.9077",
        "Status": "On-Going",
        "DumpsiteArea": "49.5",
        "DumpsiteCurrentHeight": "4.5",
        "WasteQuantity": "2100000.000"
      }
    },
    {
      "type": "Feature",
      "geometry": { "type": "Point", "coordinates": [75.6672, 30.8251] },
      "properties": {
        "State": "PUNJAB",
        "ULB_City": "MULLANPUR DAKHA (NP)",
        "latitude": "30.8251",
        "longitude": "75.6672",
        "Status": "On-Going",
        "DumpsiteArea": "4.5",
        "DumpsiteCurrentHeight": "2",
        "WasteQuantity": "6156.000"
      }
    },
    {
      "type": "Feature",
      "geometry": { "type": "Point", "coordinates": [75.5954, 30.6272] },
      "properties": {
        "State": "PUNJAB",
        "ULB_City": "RAIKOT",
        "latitude": "30.6272",
        "longitude": "75.5954",
        "Status": "On-Going",
        "DumpsiteArea": "3.5",
        "DumpsiteCurrentHeight": "1",
        "WasteQuantity": "16150.000"
      }
    },
    {
      "type": "Feature",
      "geometry": { "type": "Point", "coordinates": [75.4742, 30.7818] },
      "properties": {
        "State": "PUNJAB",
        "ULB_City": "JAGRAON",
        "latitude": "30.7818",
        "longitude": "75.4742",
        "Status": "Completed",
        "DumpsiteArea": "3",
        "DumpsiteCurrentHeight": "2",
        "WasteQuantity": "12000.000"
      }
    },
    {
      "type": "Feature",
      "geometry": { "type": "Point", "coordinates": [75.2921, 30.6769] },
      "properties": {
        "State": "PUNJAB",
        "ULB_City": "BADHNI KALAN (NP)",
        "latitude": "30.6769",
        "longitude": "75.2921",
        "Status": "Completed",
        "DumpsiteArea": "1.50",
        "DumpsiteCurrentHeight": "2",
        "WasteQuantity": "750.000"
      }
    },
    {
      "type": "Feature",
      "geometry": { "type": "Point", "coordinates": [75.1413, 30.843] },
      "properties": {
        "State": "PUNJAB",
        "ULB_City": "MOGA",
        "latitude": "30.843",
        "longitude": "75.1413",
        "Status": "On-Going",
        "DumpsiteArea": "4",
        "DumpsiteCurrentHeight": "3",
        "WasteQuantity": "214000.000"
      }
    },
    {
      "type": "Feature",
      "geometry": { "type": "Point", "coordinates": [75.226, 30.9475] },
      "properties": {
        "State": "PUNJAB",
        "ULB_City": "DHARAMKOT (M CL)",
        "latitude": "30.9475",
        "longitude": "75.226",
        "Status": "Completed",
        "DumpsiteArea": "1",
        "DumpsiteCurrentHeight": "1",
        "WasteQuantity": "250.000"
      }
    },
    {
      "type": "Feature",
      "geometry": { "type": "Point", "coordinates": [75.1421, 30.9647] },
      "properties": {
        "State": "PUNJAB",
        "ULB_City": "KOT ISSE KHAN",
        "latitude": "30.9647",
        "longitude": "75.1421",
        "Status": "Completed",
        "DumpsiteArea": "2",
        "DumpsiteCurrentHeight": "0.01",
        "WasteQuantity": "50.000"
      }
    },
    {
      "type": "Feature",
      "geometry": { "type": "Point", "coordinates": [75.2653, 30.5927] },
      "properties": {
        "State": "PUNJAB",
        "ULB_City": "NIHAL SINGH WALA",
        "latitude": "30.5927",
        "longitude": "75.2653",
        "Status": "Completed",
        "DumpsiteArea": "0.21",
        "DumpsiteCurrentHeight": "0.2",
        "WasteQuantity": "490.000"
      }
    },
    {
      "type": "Feature",
      "geometry": { "type": "Point", "coordinates": [75.1084, 31.0558] },
      "properties": {
        "State": "PUNJAB",
        "ULB_City": "FATEHGARH PAJTUR",
        "latitude": "31.0558",
        "longitude": "75.1084",
        "Status": "Completed",
        "DumpsiteArea": "0.30",
        "DumpsiteCurrentHeight": "2",
        "WasteQuantity": "175.000"
      }
    },
    {
      "type": "Feature",
      "geometry": { "type": "Point", "coordinates": [74.9668, 31.1139] },
      "properties": {
        "State": "PUNJAB",
        "ULB_City": "MAKHU (NP)",
        "latitude": "31.1139",
        "longitude": "74.9668",
        "Status": "Completed",
        "DumpsiteArea": "2.0",
        "DumpsiteCurrentHeight": "1.5",
        "WasteQuantity": "1850.000"
      }
    },
    {
      "type": "Feature",
      "geometry": { "type": "Point", "coordinates": [74.6066, 30.9778] },
      "properties": {
        "State": "PUNJAB",
        "ULB_City": "FIROZPUR",
        "latitude": "30.9778",
        "longitude": "74.6066",
        "Status": "Completed",
        "DumpsiteArea": "2",
        "DumpsiteCurrentHeight": "0.5",
        "WasteQuantity": "1000.000"
      }
    },
    {
      "type": "Feature",
      "geometry": { "type": "Point", "coordinates": [74.6067, 30.9781] },
      "properties": {
        "State": "PUNJAB",
        "ULB_City": "FIROZPUR",
        "latitude": "30.9781",
        "longitude": "74.6067",
        "Status": "Completed",
        "DumpsiteArea": "3",
        "DumpsiteCurrentHeight": "1",
        "WasteQuantity": "5500.000"
      }
    },
    {
      "type": "Feature",
      "geometry": { "type": "Point", "coordinates": [74.9332, 30.8573] },
      "properties": {
        "State": "PUNJAB",
        "ULB_City": "TALWANDI BHAI",
        "latitude": "30.8573",
        "longitude": "74.9332",
        "Status": "Completed",
        "DumpsiteArea": "1",
        "DumpsiteCurrentHeight": "1.25",
        "WasteQuantity": "450.000"
      }
    },
    {
      "type": "Feature",
      "geometry": { "type": "Point", "coordinates": [74.8672, 30.7594] },
      "properties": {
        "State": "PUNJAB",
        "ULB_City": "MUDKI",
        "latitude": "30.7594",
        "longitude": "74.8672",
        "Status": "Completed",
        "DumpsiteArea": "2",
        "DumpsiteCurrentHeight": "3",
        "WasteQuantity": "650.000"
      }
    },
    {
      "type": "Feature",
      "geometry": { "type": "Point", "coordinates": [74.4082, 30.7283] },
      "properties": {
        "State": "PUNJAB",
        "ULB_City": "GURU HAR SAHAI",
        "latitude": "30.7283",
        "longitude": "74.4082",
        "Status": "Completed",
        "DumpsiteArea": "0.33",
        "DumpsiteCurrentHeight": "20",
        "WasteQuantity": "4000.000"
      }
    },
    {
      "type": "Feature",
      "geometry": { "type": "Point", "coordinates": [74.4166, 30.8591] },
      "properties": {
        "State": "PUNJAB",
        "ULB_City": "MAMDOT",
        "latitude": "30.8591",
        "longitude": "74.4166",
        "Status": "Completed",
        "DumpsiteArea": "1",
        "DumpsiteCurrentHeight": "2",
        "WasteQuantity": "936.000"
      }
    },
    {
      "type": "Feature",
      "geometry": { "type": "Point", "coordinates": [74.4843, 30.1827] },
      "properties": {
        "State": "PUNJAB",
        "ULB_City": "MALOUT",
        "latitude": "30.1827",
        "longitude": "74.4843",
        "Status": "On-Going",
        "DumpsiteArea": "5.39",
        "DumpsiteCurrentHeight": "2.13",
        "WasteQuantity": "48886.000"
      }
    },
    {
      "type": "Feature",
      "geometry": { "type": "Point", "coordinates": [74.671, 30.201] },
      "properties": {
        "State": "PUNJAB",
        "ULB_City": "GIDDERBAHA",
        "latitude": "30.201",
        "longitude": "74.671",
        "Status": "On-Going",
        "DumpsiteArea": "2",
        "DumpsiteCurrentHeight": "1",
        "WasteQuantity": "36000.000"
      }
    },
    {
      "type": "Feature",
      "geometry": { "type": "Point", "coordinates": [74.4972, 30.4957] },
      "properties": {
        "State": "PUNJAB",
        "ULB_City": "MUKTSAR (M CL)",
        "latitude": "30.4957",
        "longitude": "74.4972",
        "Status": "On-Going",
        "DumpsiteArea": "2.17",
        "DumpsiteCurrentHeight": "5.25",
        "WasteQuantity": "45000.000"
      }
    },
    {
      "type": "Feature",
      "geometry": { "type": "Point", "coordinates": [74.6627, 30.5277] },
      "properties": {
        "State": "PUNJAB",
        "ULB_City": "BARIWALA (NP)",
        "latitude": "30.5277",
        "longitude": "74.6627",
        "Status": "On-Going",
        "DumpsiteArea": "0.3",
        "DumpsiteCurrentHeight": "1",
        "WasteQuantity": "29400.000"
      }
    },
    {
      "type": "Feature",
      "geometry": { "type": "Point", "coordinates": [74.7652, 30.6624] },
      "properties": {
        "State": "PUNJAB",
        "ULB_City": "FARIDKOT (M CL)",
        "latitude": "30.6624",
        "longitude": "74.7652",
        "Status": "On-Going",
        "DumpsiteArea": "1",
        "DumpsiteCurrentHeight": "2",
        "WasteQuantity": "40000.000"
      }
    },
    {
      "type": "Feature",
      "geometry": { "type": "Point", "coordinates": [74.8271, 30.5865] },
      "properties": {
        "State": "PUNJAB",
        "ULB_City": "KOT KAPURA",
        "latitude": "30.5865",
        "longitude": "74.8271",
        "Status": "On-Going",
        "DumpsiteArea": "5",
        "DumpsiteCurrentHeight": "15",
        "WasteQuantity": "1027.000"
      }
    },
    {
      "type": "Feature",
      "geometry": { "type": "Point", "coordinates": [74.8783, 30.4514] },
      "properties": {
        "State": "PUNJAB",
        "ULB_City": "JAITU",
        "latitude": "30.4514",
        "longitude": "74.8783",
        "Status": "On-Going",
        "DumpsiteArea": "2",
        "DumpsiteCurrentHeight": "3",
        "WasteQuantity": "50000.000"
      }
    },
    {
      "type": "Feature",
      "geometry": { "type": "Point", "coordinates": [75.1186, 30.484] },
      "properties": {
        "State": "PUNJAB",
        "ULB_City": "BHAGTA BHAI KA",
        "latitude": "30.484",
        "longitude": "75.1186",
        "Status": "Completed",
        "DumpsiteArea": "4",
        "DumpsiteCurrentHeight": "2",
        "WasteQuantity": "200.000"
      }
    },
    {
      "type": "Feature",
      "geometry": { "type": "Point", "coordinates": [75.2382, 30.2738] },
      "properties": {
        "State": "PUNJAB",
        "ULB_City": "RAMPURA PHUL",
        "latitude": "30.2738",
        "longitude": "75.2382",
        "Status": "On-Going",
        "DumpsiteArea": "2",
        "DumpsiteCurrentHeight": "8",
        "WasteQuantity": "60000.000"
      }
    },
    {
      "type": "Feature",
      "geometry": { "type": "Point", "coordinates": [74.9578, 30.2124] },
      "properties": {
        "State": "PUNJAB",
        "ULB_City": "BHUCHO MANDI (M CL)",
        "latitude": "30.2124",
        "longitude": "74.9578",
        "Status": "On-Going",
        "DumpsiteArea": "1",
        "DumpsiteCurrentHeight": "3",
        "WasteQuantity": "1690.000"
      }
    },
    {
      "type": "Feature",
      "geometry": { "type": "Point", "coordinates": [75.0822, 29.9857] },
      "properties": {
        "State": "PUNJAB",
        "ULB_City": "GONIANA",
        "latitude": "29.9857",
        "longitude": "75.0822",
        "Status": "On-Going",
        "DumpsiteArea": "2.12",
        "DumpsiteCurrentHeight": "7",
        "WasteQuantity": "20000.000"
      }
    },
    {
      "type": "Feature",
      "geometry": { "type": "Point", "coordinates": [74.9341, 30.2106] },
      "properties": {
        "State": "PUNJAB",
        "ULB_City": "BATHINDA",
        "latitude": "30.2106",
        "longitude": "74.9341",
        "Status": "On-Going",
        "DumpsiteArea": "10",
        "DumpsiteCurrentHeight": "0.5",
        "WasteQuantity": "290000.000"
      }
    },
    {
      "type": "Feature",
      "geometry": { "type": "Point", "coordinates": [74.8329, 30.0882] },
      "properties": {
        "State": "PUNJAB",
        "ULB_City": "SANGAT",
        "latitude": "30.0882",
        "longitude": "74.8329",
        "Status": "Completed",
        "DumpsiteArea": "1",
        "DumpsiteCurrentHeight": "2",
        "WasteQuantity": "150.000"
      }
    },
    {
      "type": "Feature",
      "geometry": { "type": "Point", "coordinates": [75.0422, 30.1298] },
      "properties": {
        "State": "PUNJAB",
        "ULB_City": "KOT FATTA",
        "latitude": "30.1298",
        "longitude": "75.0422",
        "Status": "On-Going",
        "DumpsiteArea": "1.32",
        "DumpsiteCurrentHeight": "7",
        "WasteQuantity": "500.000"
      }
    },
    {
      "type": "Feature",
      "geometry": { "type": "Point", "coordinates": [74.9733, 29.9607] },
      "properties": {
        "State": "PUNJAB",
        "ULB_City": "RAMAN",
        "latitude": "29.9607",
        "longitude": "74.9733",
        "Status": "On-Going",
        "DumpsiteArea": "1.5",
        "DumpsiteCurrentHeight": "5",
        "WasteQuantity": "720.000"
      }
    },
    {
      "type": "Feature",
      "geometry": { "type": "Point", "coordinates": [75.2321, 30.0595] },
      "properties": {
        "State": "PUNJAB",
        "ULB_City": "MAUR",
        "latitude": "30.0595",
        "longitude": "75.2321",
        "Status": "Completed",
        "DumpsiteArea": "2",
        "DumpsiteCurrentHeight": "1"
      }
    },
    {
      "type": "Feature",
      "geometry": { "type": "Point", "coordinates": [75.0049, 30.1146] },
      "properties": {
        "State": "PUNJAB",
        "ULB_City": "KOT SHAMIR",
        "latitude": "30.1146",
        "longitude": "75.0049",
        "Status": "Completed",
        "DumpsiteArea": "1",
        "DumpsiteCurrentHeight": "500"
      }
    },
    {
      "type": "Feature",
      "geometry": { "type": "Point", "coordinates": [75.0961, 30.311] },
      "properties": {
        "State": "PUNJAB",
        "ULB_City": "NATHANA",
        "latitude": "30.311",
        "longitude": "75.0961",
        "Status": "Completed",
        "DumpsiteArea": "1",
        "DumpsiteCurrentHeight": "1",
        "WasteQuantity": "105.000"
      }
    },
    {
      "type": "Feature",
      "geometry": { "type": "Point", "coordinates": [74.9578, 30.2124] },
      "properties": {
        "State": "PUNJAB",
        "ULB_City": "MEHRAJ",
        "latitude": "30.2124",
        "longitude": "74.9578",
        "Status": "Completed",
        "DumpsiteArea": "0.7",
        "DumpsiteCurrentHeight": "1",
        "WasteQuantity": "72.000"
      }
    },
    {
      "type": "Feature",
      "geometry": { "type": "Point", "coordinates": [75.0494, 30.4326] },
      "properties": {
        "State": "PUNJAB",
        "ULB_City": "MALUKA",
        "latitude": "30.4326",
        "longitude": "75.0494",
        "Status": "Completed",
        "DumpsiteArea": "0.2",
        "DumpsiteCurrentHeight": "2",
        "WasteQuantity": "1000.000"
      }
    },
    {
      "type": "Feature",
      "geometry": { "type": "Point", "coordinates": [75.0926, 30.4451] },
      "properties": {
        "State": "PUNJAB",
        "ULB_City": "KOTHA GURU",
        "latitude": "30.4451",
        "longitude": "75.0926",
        "Status": "Completed",
        "DumpsiteArea": "1",
        "DumpsiteCurrentHeight": "1",
        "WasteQuantity": "150.000"
      }
    },
    {
      "type": "Feature",
      "geometry": { "type": "Point", "coordinates": [75.2533, 29.6631] },
      "properties": {
        "State": "PUNJAB",
        "ULB_City": "SARDULGARH",
        "latitude": "29.6631",
        "longitude": "75.2533",
        "Status": "On-Going",
        "DumpsiteArea": "4",
        "DumpsiteCurrentHeight": "15",
        "WasteQuantity": "33000.000"
      }
    },
    {
      "type": "Feature",
      "geometry": { "type": "Point", "coordinates": [75.6866, 29.8582] },
      "properties": {
        "State": "PUNJAB",
        "ULB_City": "BARETA",
        "latitude": "29.8582",
        "longitude": "75.6866",
        "Status": "Completed",
        "DumpsiteArea": "4",
        "DumpsiteCurrentHeight": "2",
        "WasteQuantity": "1000.000"
      }
    },
    {
      "type": "Feature",
      "geometry": { "type": "Point", "coordinates": [75.5709, 29.9064] },
      "properties": {
        "State": "PUNJAB",
        "ULB_City": "BUDHLADA",
        "latitude": "29.9064",
        "longitude": "75.5709",
        "Status": "On-Going",
        "DumpsiteArea": "2",
        "DumpsiteCurrentHeight": "10",
        "WasteQuantity": "52000.000"
      }
    },
    {
      "type": "Feature",
      "geometry": { "type": "Point", "coordinates": [75.5287, 30.0549] },
      "properties": {
        "State": "PUNJAB",
        "ULB_City": "BHIKHI (NP)",
        "latitude": "30.0549",
        "longitude": "75.5287",
        "Status": "Completed",
        "DumpsiteArea": "3",
        "DumpsiteCurrentHeight": "3",
        "WasteQuantity": "15000.000"
      }
    },
    {
      "type": "Feature",
      "geometry": { "type": "Point", "coordinates": [75.3912, 29.9914] },
      "properties": {
        "State": "PUNJAB",
        "ULB_City": "MANSA",
        "latitude": "29.9914",
        "longitude": "75.3912",
        "Status": "Completed",
        "DumpsiteArea": "2",
        "DumpsiteCurrentHeight": "10",
        "WasteQuantity": "500.000"
      }
    },
    {
      "type": "Feature",
      "geometry": { "type": "Point", "coordinates": [75.3665, 29.9863] },
      "properties": {
        "State": "PUNJAB",
        "ULB_City": "MANSA",
        "latitude": "29.9863",
        "longitude": "75.3665",
        "Status": "On-Going",
        "DumpsiteArea": "2",
        "DumpsiteCurrentHeight": "10",
        "WasteQuantity": "200000.000"
      }
    },
    {
      "type": "Feature",
      "geometry": { "type": "Point", "coordinates": [75.5014, 29.8452] },
      "properties": {
        "State": "PUNJAB",
        "ULB_City": "BOHA",
        "latitude": "29.8452",
        "longitude": "75.5014",
        "Status": "Completed",
        "DumpsiteArea": "2",
        "DumpsiteCurrentHeight": "3",
        "WasteQuantity": "1500.000"
      }
    },
    {
      "type": "Feature",
      "geometry": { "type": "Point", "coordinates": [75.4395, 30.1659] },
      "properties": {
        "State": "PUNJAB",
        "ULB_City": "JOGA",
        "latitude": "30.1659",
        "longitude": "75.4395",
        "Status": "Completed",
        "DumpsiteArea": "2",
        "DumpsiteCurrentHeight": "1"
      }
    },
    {
      "type": "Feature",
      "geometry": { "type": "Point", "coordinates": [76.1992, 30.1672] },
      "properties": {
        "State": "PUNJAB",
        "ULB_City": "SAMANA",
        "latitude": "30.1672",
        "longitude": "76.1992",
        "Status": "Completed",
        "DumpsiteArea": "4",
        "DumpsiteCurrentHeight": "1",
        "WasteQuantity": "6000.000"
      }
    },
    {
      "type": "Feature",
      "geometry": { "type": "Point", "coordinates": [76.1019, 29.8661] },
      "properties": {
        "State": "PUNJAB",
        "ULB_City": "PATRAN",
        "latitude": "29.8661",
        "longitude": "76.1019",
        "Status": "On-Going",
        "DumpsiteArea": "2",
        "DumpsiteCurrentHeight": "1.5",
        "WasteQuantity": "8000.000"
      }
    },
    {
      "type": "Feature",
      "geometry": { "type": "Point", "coordinates": [76.0957, 30.0056] },
      "properties": {
        "State": "PUNJAB",
        "ULB_City": "GHAGGA",
        "latitude": "30.0056",
        "longitude": "76.0957",
        "Status": "On-Going",
        "DumpsiteArea": "2",
        "DumpsiteCurrentHeight": "3",
        "WasteQuantity": "35273.000"
      }
    },
    {
      "type": "Feature",
      "geometry": { "type": "Point", "coordinates": [76.137, 30.38] },
      "properties": {
        "State": "PUNJAB",
        "ULB_City": "NABHA",
        "latitude": "30.38",
        "longitude": "76.137",
        "Status": "Completed",
        "DumpsiteArea": "4",
        "DumpsiteCurrentHeight": "1.5",
        "WasteQuantity": "40000.000"
      }
    },
    {
      "type": "Feature",
      "geometry": { "type": "Point", "coordinates": [76.4143, 30.3179] },
      "properties": {
        "State": "PUNJAB",
        "ULB_City": "PATIALA",
        "latitude": "30.3179",
        "longitude": "76.4143",
        "Status": "Completed",
        "DumpsiteArea": "8",
        "DumpsiteCurrentHeight": "7.5",
        "WasteQuantity": "175000.000"
      }
    },
    {
      "type": "Feature",
      "geometry": { "type": "Point", "coordinates": [76.4949, 30.2817] },
      "properties": {
        "State": "PUNJAB",
        "ULB_City": "SANAUR",
        "latitude": "30.2817",
        "longitude": "76.4949",
        "Status": "Completed",
        "DumpsiteArea": "2",
        "DumpsiteCurrentHeight": "0.1",
        "WasteQuantity": "468.000"
      }
    },
    {
      "type": "Feature",
      "geometry": { "type": "Point", "coordinates": [76.6088, 30.4789] },
      "properties": {
        "State": "PUNJAB",
        "ULB_City": "RAJPURA",
        "latitude": "30.4789",
        "longitude": "76.6088",
        "Status": "Completed",
        "DumpsiteArea": "7",
        "WasteQuantity": "80000.000"
      }
    },
    {
      "type": "Feature",
      "geometry": { "type": "Point", "coordinates": [74.9112, 31.9647] },
      "properties": {
        "State": "PUNJAB",
        "ULB_City": "RAMDAS",
        "latitude": "31.9647",
        "longitude": "74.9112",
        "Status": "Completed",
        "DumpsiteArea": "2",
        "DumpsiteCurrentHeight": "2",
        "WasteQuantity": "400.000"
      }
    },
    {
      "type": "Feature",
      "geometry": { "type": "Point", "coordinates": [74.7737, 31.8587] },
      "properties": {
        "State": "PUNJAB",
        "ULB_City": "AJNALA (NP)",
        "latitude": "31.8587",
        "longitude": "74.7737",
        "Status": "On-Going",
        "DumpsiteArea": "0.88",
        "WasteQuantity": "35770.000"
      }
    },
    {
      "type": "Feature",
      "geometry": { "type": "Point", "coordinates": [74.9695, 31.7501] },
      "properties": {
        "State": "PUNJAB",
        "ULB_City": "MAJITHA",
        "latitude": "31.7501",
        "longitude": "74.9695",
        "Status": "Completed",
        "DumpsiteArea": "1",
        "DumpsiteCurrentHeight": "2",
        "WasteQuantity": "250.000"
      }
    },
    {
      "type": "Feature",
      "geometry": { "type": "Point", "coordinates": [75.0238, 31.5663] },
      "properties": {
        "State": "PUNJAB",
        "ULB_City": "JANDIALA (M CL)",
        "latitude": "31.5663",
        "longitude": "75.0238",
        "Status": "On-Going",
        "DumpsiteArea": "6",
        "DumpsiteCurrentHeight": "1",
        "WasteQuantity": "8000.000"
      }
    },
    {
      "type": "Feature",
      "geometry": { "type": "Point", "coordinates": [74.8764, 31.6013] },
      "properties": {
        "State": "PUNJAB",
        "ULB_City": "AMRITSAR",
        "latitude": "31.6013",
        "longitude": "74.8764",
        "Status": "On-Going",
        "DumpsiteArea": "25",
        "DumpsiteCurrentHeight": "5",
        "WasteQuantity": "1000000.000"
      }
    },
    {
      "type": "Feature",
      "geometry": { "type": "Point", "coordinates": [74.7777, 31.6222] },
      "properties": {
        "State": "PUNJAB",
        "ULB_City": "AMRITSAR",
        "latitude": "31.6222",
        "longitude": "74.7777",
        "Status": "On-Going",
        "DumpsiteArea": "3.5",
        "DumpsiteCurrentHeight": "3",
        "WasteQuantity": "35000.000"
      }
    },
    {
      "type": "Feature",
      "geometry": { "type": "Point", "coordinates": [75.0299, 31.5602] },
      "properties": {
        "State": "PUNJAB",
        "ULB_City": "RAYYA (NP)",
        "latitude": "31.5602",
        "longitude": "75.0299",
        "Status": "Completed",
        "DumpsiteArea": "1",
        "DumpsiteCurrentHeight": "1.5",
        "WasteQuantity": "1950.000"
      }
    },
    {
      "type": "Feature",
      "geometry": { "type": "Point", "coordinates": [74.9301, 31.4446] },
      "properties": {
        "State": "PUNJAB",
        "ULB_City": "TARN TARAN",
        "latitude": "31.4446",
        "longitude": "74.9301",
        "Status": "On-Going",
        "DumpsiteArea": "0.59",
        "DumpsiteCurrentHeight": "10",
        "WasteQuantity": "22000.000"
      }
    },
    {
      "type": "Feature",
      "geometry": { "type": "Point", "coordinates": [74.5653, 31.1447] },
      "properties": {
        "State": "PUNJAB",
        "ULB_City": "KHEM KARAN",
        "latitude": "31.1447",
        "longitude": "74.5653",
        "Status": "On-Going",
        "DumpsiteArea": "2.50",
        "DumpsiteCurrentHeight": "1",
        "WasteQuantity": "3200.000"
      }
    },
    {
      "type": "Feature",
      "geometry": { "type": "Point", "coordinates": [76.7647, 30.7298] },
      "properties": {
        "State": "PUNJAB",
        "ULB_City": "BHIKHIWIND",
        "latitude": "30.7298",
        "longitude": "76.7647",
        "Status": "On-Going",
        "DumpsiteArea": "1.50",
        "DumpsiteCurrentHeight": "1.5",
        "WasteQuantity": "5200.000"
      }
    },
    {
      "type": "Feature",
      "geometry": { "type": "Point", "coordinates": [76.5156, 31.238] },
      "properties": {
        "State": "PUNJAB",
        "ULB_City": "ANANDPUR SAHIB (M CL)",
        "latitude": "31.238",
        "longitude": "76.5156",
        "Status": "Completed",
        "DumpsiteArea": "1.5",
        "DumpsiteCurrentHeight": "1",
        "WasteQuantity": "10.000"
      }
    },
    {
      "type": "Feature",
      "geometry": { "type": "Point", "coordinates": [76.3644, 31.3697] },
      "properties": {
        "State": "PUNJAB",
        "ULB_City": "NANGAL",
        "latitude": "31.3697",
        "longitude": "76.3644",
        "Status": "On-Going",
        "DumpsiteArea": "2",
        "DumpsiteCurrentHeight": "4",
        "WasteQuantity": "20718.000"
      }
    },
    {
      "type": "Feature",
      "geometry": { "type": "Point", "coordinates": [76.5723, 30.9844] },
      "properties": {
        "State": "PUNJAB",
        "ULB_City": "RUPNAGAR (M CL)",
        "latitude": "30.9844",
        "longitude": "76.5723",
        "Status": "Completed",
        "DumpsiteArea": "4",
        "DumpsiteCurrentHeight": "2",
        "WasteQuantity": "750.000"
      }
    },
    {
      "type": "Feature",
      "geometry": { "type": "Point", "coordinates": [76.3989, 30.9153] },
      "properties": {
        "State": "PUNJAB",
        "ULB_City": "CHAMKAUR SAHIB",
        "latitude": "30.9153",
        "longitude": "76.3989",
        "Status": "Completed",
        "DumpsiteArea": "1.5",
        "DumpsiteCurrentHeight": "0.1",
        "WasteQuantity": "500.000"
      }
    },
    {
      "type": "Feature",
      "geometry": { "type": "Point", "coordinates": [76.4975, 30.7911] },
      "properties": {
        "State": "PUNJAB",
        "ULB_City": "MORINDA",
        "latitude": "30.7911",
        "longitude": "76.4975",
        "Status": "Completed",
        "DumpsiteArea": "3",
        "DumpsiteCurrentHeight": "8",
        "WasteQuantity": "1250.000"
      }
    },
    {
      "type": "Feature",
      "geometry": { "type": "Point", "coordinates": [76.5817, 31.1743] },
      "properties": {
        "State": "PUNJAB",
        "ULB_City": "KIRATPUR SAHIB",
        "latitude": "31.1743",
        "longitude": "76.5817",
        "Status": "Completed",
        "DumpsiteArea": "1",
        "DumpsiteCurrentHeight": "1",
        "WasteQuantity": "45.000"
      }
    },
    {
      "type": "Feature",
      "geometry": { "type": "Point", "coordinates": [76.5733, 30.8446] },
      "properties": {
        "State": "PUNJAB",
        "ULB_City": "KURALI (M CL)",
        "latitude": "30.8446",
        "longitude": "76.5733",
        "Status": "Completed",
        "DumpsiteArea": "2.00",
        "DumpsiteCurrentHeight": "3.6576",
        "WasteQuantity": "100.000"
      }
    },
    {
      "type": "Feature",
      "geometry": { "type": "Point", "coordinates": [76.621, 30.7507] },
      "properties": {
        "State": "PUNJAB",
        "ULB_City": "KHARAR",
        "latitude": "30.7507",
        "longitude": "76.621",
        "Status": "On-Going",
        "DumpsiteArea": "6",
        "DumpsiteCurrentHeight": "5",
        "WasteQuantity": "121000.000"
      }
    },
    {
      "type": "Feature",
      "geometry": { "type": "Point", "coordinates": [76.7282, 30.5591] },
      "properties": {
        "State": "PUNJAB",
        "ULB_City": "BANUR (M CL)",
        "latitude": "30.5591",
        "longitude": "76.7282",
        "Status": "Completed",
        "DumpsiteArea": "2",
        "DumpsiteCurrentHeight": "10",
        "WasteQuantity": "11879.000"
      }
    },
    {
      "type": "Feature",
      "geometry": { "type": "Point", "coordinates": [76.7238, 30.6812] },
      "properties": {
        "State": "PUNJAB",
        "ULB_City": "S.A.S. NAGAR (MOHALI)",
        "latitude": "30.6812",
        "longitude": "76.7238",
        "Status": "Takenupbystatefunding",
        "DumpsiteArea": "10.25",
        "DumpsiteCurrentHeight": "20",
        "WasteQuantity": "223524.000"
      }
    },
    {
      "type": "Feature",
      "geometry": { "type": "Point", "coordinates": [76.8322, 30.6478] },
      "properties": {
        "State": "PUNJAB",
        "ULB_City": "ZIRAKPUR",
        "latitude": "30.6478",
        "longitude": "76.8322",
        "Status": "On-Going",
        "DumpsiteArea": "4",
        "DumpsiteCurrentHeight": "3",
        "WasteQuantity": "53000.000"
      }
    },
    {
      "type": "Feature",
      "geometry": { "type": "Point", "coordinates": [76.8773, 30.5881] },
      "properties": {
        "State": "PUNJAB",
        "ULB_City": "DERA BASSI",
        "latitude": "30.5881",
        "longitude": "76.8773",
        "Status": "Completed",
        "DumpsiteArea": "2",
        "DumpsiteCurrentHeight": "0.3",
        "WasteQuantity": "250.000"
      }
    },
    {
      "type": "Feature",
      "geometry": { "type": "Point", "coordinates": [76.8262, 30.4984] },
      "properties": {
        "State": "PUNJAB",
        "ULB_City": "LALRU",
        "latitude": "30.4984",
        "longitude": "76.8262",
        "Status": "On-Going",
        "DumpsiteArea": "4",
        "DumpsiteCurrentHeight": "5",
        "WasteQuantity": "7000.000"
      }
    },
    {
      "type": "Feature",
      "geometry": { "type": "Point", "coordinates": [75.8123, 30.6462] },
      "properties": {
        "State": "PUNJAB",
        "ULB_City": "AHMEDGARH",
        "latitude": "30.6462",
        "longitude": "75.8123",
        "Status": "Completed",
        "DumpsiteArea": "1",
        "DumpsiteCurrentHeight": "0.1",
        "WasteQuantity": "90.000"
      }
    },
    {
      "type": "Feature",
      "geometry": { "type": "Point", "coordinates": [75.8655, 30.5467] },
      "properties": {
        "State": "PUNJAB",
        "ULB_City": "MALERKOTLA (M CL)",
        "latitude": "30.5467",
        "longitude": "75.8655",
        "Status": "On-Going",
        "DumpsiteArea": "3.5",
        "DumpsiteCurrentHeight": "4",
        "WasteQuantity": "200000.000"
      }
    },
    {
      "type": "Feature",
      "geometry": { "type": "Point", "coordinates": [75.9121, 30.3659] },
      "properties": {
        "State": "PUNJAB",
        "ULB_City": "DHURI",
        "latitude": "30.3659",
        "longitude": "75.9121",
        "Status": "On-Going",
        "DumpsiteArea": "2.16",
        "DumpsiteCurrentHeight": "8",
        "WasteQuantity": "32000.000"
      }
    },
    {
      "type": "Feature",
      "geometry": { "type": "Point", "coordinates": [76.0315, 30.2729] },
      "properties": {
        "State": "PUNJAB",
        "ULB_City": "BHAWANIGARH",
        "latitude": "30.2729",
        "longitude": "76.0315",
        "Status": "On-Going",
        "DumpsiteArea": "2.5",
        "DumpsiteCurrentHeight": "1.82",
        "WasteQuantity": "9061.000"
      }
    },
    {
      "type": "Feature",
      "geometry": { "type": "Point", "coordinates": [75.792, 30.223] },
      "properties": {
        "State": "PUNJAB",
        "ULB_City": "SANGRUR",
        "latitude": "30.223",
        "longitude": "75.792",
        "Status": "On-Going",
        "DumpsiteArea": "2",
        "DumpsiteCurrentHeight": "10",
        "WasteQuantity": "8000.000"
      }
    },
    {
      "type": "Feature",
      "geometry": { "type": "Point", "coordinates": [75.6535, 30.1779] },
      "properties": {
        "State": "PUNJAB",
        "ULB_City": "LONGOWAL",
        "latitude": "30.1779",
        "longitude": "75.6535",
        "Status": "On-Going",
        "DumpsiteArea": "1",
        "DumpsiteCurrentHeight": "4.45",
        "WasteQuantity": "550.000"
      }
    },
    {
      "type": "Feature",
      "geometry": { "type": "Point", "coordinates": [75.8062, 30.1378] },
      "properties": {
        "State": "PUNJAB",
        "ULB_City": "CHEEMA",
        "latitude": "30.1378",
        "longitude": "75.8062",
        "Status": "Completed",
        "DumpsiteArea": "2",
        "WasteQuantity": "100.000"
      }
    },
    {
      "type": "Feature",
      "geometry": { "type": "Point", "coordinates": [75.7968, 30.1201] },
      "properties": {
        "State": "PUNJAB",
        "ULB_City": "SUNAM UDHAM SINGH WALA",
        "latitude": "30.1201",
        "longitude": "75.7968",
        "Status": "On-Going",
        "DumpsiteArea": "4",
        "DumpsiteCurrentHeight": "10",
        "WasteQuantity": "20000.000"
      }
    },
    {
      "type": "Feature",
      "geometry": { "type": "Point", "coordinates": [76.0033, 30.0797] },
      "properties": {
        "State": "PUNJAB",
        "ULB_City": "DIRBA",
        "latitude": "30.0797",
        "longitude": "76.0033",
        "Status": "Completed",
        "DumpsiteArea": "1.5",
        "DumpsiteCurrentHeight": "0.5",
        "WasteQuantity": "380.000"
      }
    },
    {
      "type": "Feature",
      "geometry": { "type": "Point", "coordinates": [75.793, 29.9201] },
      "properties": {
        "State": "PUNJAB",
        "ULB_City": "LEHRAGAGA",
        "latitude": "29.9201",
        "longitude": "75.793",
        "Status": "On-Going",
        "DumpsiteArea": "1.3",
        "DumpsiteCurrentHeight": "1.5",
        "WasteQuantity": "900.000"
      }
    },
    {
      "type": "Feature",
      "geometry": { "type": "Point", "coordinates": [75.8972, 29.8163] },
      "properties": {
        "State": "PUNJAB",
        "ULB_City": "MOONAK",
        "latitude": "29.8163",
        "longitude": "75.8972",
        "Status": "Completed",
        "DumpsiteArea": "2",
        "DumpsiteCurrentHeight": "1",
        "WasteQuantity": "280.000"
      }
    },
    {
      "type": "Feature",
      "geometry": { "type": "Point", "coordinates": [76.1023, 29.8523] },
      "properties": {
        "State": "PUNJAB",
        "ULB_City": "KHANAURI",
        "latitude": "29.8523",
        "longitude": "76.1023",
        "Status": "Completed",
        "DumpsiteArea": "2",
        "DumpsiteCurrentHeight": "0.5",
        "WasteQuantity": "350.000"
      }
    },
    {
      "type": "Feature",
      "geometry": { "type": "Point", "coordinates": [76.0165, 30.4577] },
      "properties": {
        "State": "PUNJAB",
        "ULB_City": "AMARGARH",
        "latitude": "30.4577",
        "longitude": "76.0165",
        "Status": "On-Going",
        "DumpsiteArea": "1.5",
        "DumpsiteCurrentHeight": "1.75",
        "WasteQuantity": "3480.000"
      }
    },
    {
      "type": "Feature",
      "geometry": { "type": "Point", "coordinates": [75.5259, 30.3416] },
      "properties": {
        "State": "PUNJAB",
        "ULB_City": "BARNALA (M CL)",
        "latitude": "30.3416",
        "longitude": "75.5259",
        "Status": "On-Going",
        "DumpsiteArea": "1.1",
        "DumpsiteCurrentHeight": "5",
        "WasteQuantity": "43600.000"
      }
    },
    {
      "type": "Feature",
      "geometry": { "type": "Point", "coordinates": [75.491, 30.319] },
      "properties": {
        "State": "PUNJAB",
        "ULB_City": "HANDIAYA",
        "latitude": "30.319",
        "longitude": "75.491",
        "Status": "On-Going",
        "DumpsiteArea": "2",
        "DumpsiteCurrentHeight": "1",
        "WasteQuantity": "480.000"
      }
    },
    {
      "type": "Feature",
      "geometry": { "type": "Point", "coordinates": [75.373, 30.294] },
      "properties": {
        "State": "PUNJAB",
        "ULB_City": "TAPA",
        "latitude": "30.294",
        "longitude": "75.373",
        "Status": "Completed",
        "DumpsiteArea": "3",
        "DumpsiteCurrentHeight": "1",
        "WasteQuantity": "300.000"
      }
    },
    {
      "type": "Feature",
      "geometry": { "type": "Point", "coordinates": [75.3468, 30.4572] },
      "properties": {
        "State": "PUNJAB",
        "ULB_City": "BHADAUR",
        "latitude": "30.4572",
        "longitude": "75.3468",
        "Status": "On-Going",
        "DumpsiteArea": "0.76",
        "DumpsiteCurrentHeight": "12"
      }
    },
    {
      "type": "Feature",
      "geometry": { "type": "Point", "coordinates": [75.5959, 32.2274] },
      "properties": {
        "State": "PUNJAB",
        "ULB_City": "PATHANKOT",
        "latitude": "32.2274",
        "longitude": "75.5959",
        "Status": "On-Going",
        "DumpsiteArea": "10",
        "DumpsiteCurrentHeight": "0.1",
        "WasteQuantity": "56000.000"
      }
    },
    {
      "type": "Feature",
      "geometry": { "type": "Point", "coordinates": [75.4599, 32.285] },
      "properties": {
        "State": "PUNJAB",
        "ULB_City": "NAROT JAIMAL SINGH",
        "latitude": "32.285",
        "longitude": "75.4599",
        "Status": "Completed",
        "DumpsiteArea": "2",
        "DumpsiteCurrentHeight": "0.5",
        "WasteQuantity": "160.000"
      }
    },
    {
      "type": "Feature",
      "geometry": { "type": "Point", "coordinates": [74.244, 30.5652] },
      "properties": {
        "State": "PUNJAB",
        "ULB_City": "JALALABAD (M CL)",
        "latitude": "30.5652",
        "longitude": "74.244",
        "Status": "On-Going",
        "DumpsiteArea": "6",
        "DumpsiteCurrentHeight": "10",
        "WasteQuantity": "11900.000"
      }
    },
    {
      "type": "Feature",
      "geometry": { "type": "Point", "coordinates": [74.0128, 30.3837] },
      "properties": {
        "State": "PUNJAB",
        "ULB_City": "FAZILKA",
        "latitude": "30.3837",
        "longitude": "74.0128",
        "Status": "On-Going",
        "DumpsiteArea": "10",
        "DumpsiteCurrentHeight": "3",
        "WasteQuantity": "26000.000"
      }
    },
    {
      "type": "Feature",
      "geometry": { "type": "Point", "coordinates": [74.1809, 30.1403] },
      "properties": {
        "State": "PUNJAB",
        "ULB_City": "ABOHAR (M CL)",
        "latitude": "30.1403",
        "longitude": "74.1809",
        "Status": "On-Going",
        "DumpsiteArea": "9.63",
        "DumpsiteCurrentHeight": "2.0",
        "WasteQuantity": "56090.000"
      }
    },
    {
      "type": "Feature",
      "geometry": { "type": "Point", "coordinates": [74.2783, 30.3475] },
      "properties": {
        "State": "PUNJAB",
        "ULB_City": "ARNIWALA SHEIKH SUBHANPUR",
        "latitude": "30.3475",
        "longitude": "74.2783",
        "Status": "On-Going",
        "DumpsiteArea": "4.5",
        "DumpsiteCurrentHeight": "2",
        "WasteQuantity": "7200.000"
      }
    },
    {
      "type": "Feature",
      "geometry": { "type": "Point", "coordinates": [76.7428, 30.756] },
      "properties": {
        "State": "CHANDIGARH",
        "ULB_City": "CHANDIGARH",
        "latitude": "30.756",
        "longitude": "76.7428",
        "Status": "Approvedbycentre",
        "DumpsiteArea": "8",
        "DumpsiteCurrentHeight": "22",
        "WasteQuantity": "767000.000"
      }
    },
    {
      "type": "Feature",
      "geometry": { "type": "Point", "coordinates": [76.7438, 30.7563] },
      "properties": {
        "State": "CHANDIGARH",
        "ULB_City": "CHANDIGARH",
        "latitude": "30.7563",
        "longitude": "76.7438",
        "Status": "Completed",
        "DumpsiteArea": "20",
        "WasteQuantity": "510000.000"
      }
    },
    {
      "type": "Feature",
      "geometry": { "type": "Point", "coordinates": [78.9185, 30.9994] },
      "properties": {
        "State": "UTTARAKHAND",
        "ULB_City": "GANGOTRIDHAM",
        "latitude": "30.9994",
        "longitude": "78.9185",
        "Status": "Remediation Not Proposed",
        "DumpsiteArea": "3.70",
        "DumpsiteCurrentHeight": "2974",
        "WasteQuantity": "10.000"
      }
    },
    {
      "type": "Feature",
      "geometry": { "type": "Point", "coordinates": [79.13, 30.28] },
      "properties": {
        "State": "UTTARAKHAND",
        "ULB_City": "GAUCHAR",
        "latitude": "30.28",
        "longitude": "79.13",
        "Status": "Completed",
        "DumpsiteArea": "1",
        "DumpsiteCurrentHeight": "8",
        "WasteQuantity": "45.000"
      }
    },
    {
      "type": "Feature",
      "geometry": { "type": "Point", "coordinates": [79.2, 30.26] },
      "properties": {
        "State": "UTTARAKHAND",
        "ULB_City": "KARNAPRAYAG",
        "latitude": "30.26",
        "longitude": "79.2",
        "Status": "Remediation Not Proposed",
        "DumpsiteArea": "0.17",
        "DumpsiteCurrentHeight": "17",
        "WasteQuantity": "55.000"
      }
    },
    {
      "type": "Feature",
      "geometry": { "type": "Point", "coordinates": [79.43, 30.43] },
      "properties": {
        "State": "UTTARAKHAND",
        "ULB_City": "PIPALKOTI",
        "latitude": "30.43",
        "longitude": "79.43",
        "Status": "Completed",
        "DumpsiteArea": "0.09",
        "WasteQuantity": "0.000"
      }
    },
    {
      "type": "Feature",
      "geometry": { "type": "Point", "coordinates": [78.393, 30.345] },
      "properties": {
        "State": "UTTARAKHAND",
        "ULB_City": "CHAMBA_U",
        "latitude": "30.345",
        "longitude": "78.393",
        "Status": "Remediation Not Proposed",
        "DumpsiteArea": "0.03",
        "DumpsiteCurrentHeight": "10",
        "WasteQuantity": "452.000"
      }
    },
    {
      "type": "Feature",
      "geometry": { "type": "Point", "coordinates": [78.3015, 30.125] },
      "properties": {
        "State": "UTTARAKHAND",
        "ULB_City": "MUNI-KI-RETI",
        "latitude": "30.125",
        "longitude": "78.3015",
        "Status": "On-Going",
        "DumpsiteArea": "0.01",
        "DumpsiteCurrentHeight": "6",
        "WasteQuantity": "8500.000"
      }
    },
    {
      "type": "Feature",
      "geometry": { "type": "Point", "coordinates": [77.875, 30.3202] },
      "properties": {
        "State": "Uttarakhand",
        "ULB_City": "Herbertpur (NP)",
        "latitude": "30.3202",
        "longitude": "77.875",
        "Status": "Remediation Not Proposed",
        "DumpsiteArea": "NA",
        "DumpsiteCurrentHeight": "NA",
        "WasteQuantity": "0.000"
      }
    },
    {
      "type": "Feature",
      "geometry": { "type": "Point", "coordinates": [77.7311, 30.3202] },
      "properties": {
        "State": "UTTARAKHAND",
        "ULB_City": "HERBERTPUR",
        "latitude": "30.3202",
        "longitude": "77.7311",
        "Status": "Remediation Not Proposed",
        "DumpsiteArea": "0.0",
        "DumpsiteCurrentHeight": "0.0",
        "WasteQuantity": "0.000"
      }
    },
    {
      "type": "Feature",
      "geometry": { "type": "Point", "coordinates": [77.875, 30.3202] },
      "properties": {
        "State": "Uttarakhand",
        "ULB_City": "Herbertpur (NP)",
        "latitude": "30.3202",
        "longitude": "77.875",
        "Status": "Remediation Not Proposed",
        "DumpsiteArea": "NA",
        "DumpsiteCurrentHeight": "NA",
        "WasteQuantity": "0.000"
      }
    },
    {
      "type": "Feature",
      "geometry": { "type": "Point", "coordinates": [77.875, 30.3202] },
      "properties": {
        "State": "Uttarakhand",
        "ULB_City": "Herbertpur (NP)",
        "latitude": "30.3202",
        "longitude": "77.875",
        "Status": "Remediation Not Proposed",
        "DumpsiteArea": "NA",
        "DumpsiteCurrentHeight": "NA",
        "WasteQuantity": "0.000"
      }
    },
    {
      "type": "Feature",
      "geometry": { "type": "Point", "coordinates": [77.7311, 30.3202] },
      "properties": {
        "State": "UTTARAKHAND",
        "ULB_City": "HERBERTPUR",
        "latitude": "30.3202",
        "longitude": "77.7311",
        "Status": "Remediation Not Proposed",
        "DumpsiteArea": "0.0",
        "DumpsiteCurrentHeight": "0.0",
        "WasteQuantity": "0.000"
      }
    },
    {
      "type": "Feature",
      "geometry": { "type": "Point", "coordinates": [77.7311, 30.3202] },
      "properties": {
        "State": "UTTARAKHAND",
        "ULB_City": "HERBERTPUR",
        "latitude": "30.3202",
        "longitude": "77.7311",
        "Status": "Remediation Not Proposed",
        "DumpsiteArea": "0.0",
        "DumpsiteCurrentHeight": "0.0",
        "WasteQuantity": "0.000"
      }
    },
    {
      "type": "Feature",
      "geometry": { "type": "Point", "coordinates": [77.7311, 30.3202] },
      "properties": {
        "State": "UTTARAKHAND",
        "ULB_City": "HERBERTPUR",
        "latitude": "30.3202",
        "longitude": "77.7311",
        "Status": "Remediation Not Proposed",
        "DumpsiteArea": "0.0",
        "DumpsiteCurrentHeight": "0.0",
        "WasteQuantity": "0.000"
      }
    },
    {
      "type": "Feature",
      "geometry": { "type": "Point", "coordinates": [77, 30.3202] },
      "properties": {
        "State": "UTTARAKHAND",
        "ULB_City": "HERBERTPUR",
        "latitude": "30.3202",
        "longitude": "77",
        "Status": "Remediation Not Proposed",
        "DumpsiteArea": "0.0",
        "DumpsiteCurrentHeight": "0.0",
        "WasteQuantity": "0.000"
      }
    },
    {
      "type": "Feature",
      "geometry": { "type": "Point", "coordinates": [77.7311, 30.3202] },
      "properties": {
        "State": "UTTARAKHAND",
        "ULB_City": "HERBERTPUR",
        "latitude": "30.3202",
        "longitude": "77.7311",
        "Status": "Remediation Not Proposed",
        "DumpsiteArea": "0.00",
        "DumpsiteCurrentHeight": "0.00"
      }
    },
    {
      "type": "Feature",
      "geometry": { "type": "Point", "coordinates": [77.7311, 30.3202] },
      "properties": {
        "State": "UTTARAKHAND",
        "ULB_City": "HERBERTPUR",
        "latitude": "30.3202",
        "longitude": "77.7311",
        "Status": "Remediation Not Proposed",
        "DumpsiteArea": "0.0",
        "DumpsiteCurrentHeight": "0.0",
        "WasteQuantity": "0.000"
      }
    },
    {
      "type": "Feature",
      "geometry": { "type": "Point", "coordinates": [77.7311, 30.3202] },
      "properties": {
        "State": "UTTARAKHAND",
        "ULB_City": "HERBERTPUR",
        "latitude": "30.3202",
        "longitude": "77.7311",
        "Status": "Remediation Not Proposed",
        "DumpsiteArea": "0.0",
        "DumpsiteCurrentHeight": "0.0",
        "WasteQuantity": "0.000"
      }
    },
    {
      "type": "Feature",
      "geometry": { "type": "Point", "coordinates": [78.0764, 30.3422] },
      "properties": {
        "State": "UTTARAKHAND",
        "ULB_City": "DEHRADUN",
        "latitude": "30.3422",
        "longitude": "78.0764",
        "Status": "Approvedbycentre",
        "DumpsiteArea": "18.7",
        "DumpsiteCurrentHeight": "3",
        "WasteQuantity": "96671.000"
      }
    },
    {
      "type": "Feature",
      "geometry": { "type": "Point", "coordinates": [77.9518, 30.3348] },
      "properties": {
        "State": "UTTARAKHAND",
        "ULB_City": "DEHRADUN CANTT",
        "latitude": "30.3348",
        "longitude": "77.9518",
        "Status": "On-Going",
        "DumpsiteArea": "6",
        "DumpsiteCurrentHeight": "10",
        "WasteQuantity": "5000.000"
      }
    },
    {
      "type": "Feature",
      "geometry": { "type": "Point", "coordinates": [78.0138, 30.359] },
      "properties": {
        "State": "UTTARAKHAND",
        "ULB_City": "DEHRADUN CANTT",
        "latitude": "30.359",
        "longitude": "78.0138",
        "Status": "On-Going",
        "DumpsiteArea": "21",
        "DumpsiteCurrentHeight": "4",
        "WasteQuantity": "5000.000"
      }
    },
    {
      "type": "Feature",
      "geometry": { "type": "Point", "coordinates": [78.2914, 30.1039] },
      "properties": {
        "State": "UTTARAKHAND",
        "ULB_City": "RISHIKESH",
        "latitude": "30.1039",
        "longitude": "78.2914",
        "Status": "Approvedbycentre",
        "DumpsiteArea": "4",
        "DumpsiteCurrentHeight": "4",
        "WasteQuantity": "217600.000"
      }
    },
    {
      "type": "Feature",
      "geometry": { "type": "Point", "coordinates": [78.6755, 29.8387] },
      "properties": {
        "State": "UTTARAKHAND",
        "ULB_City": "LANSDOWNE CANTT",
        "latitude": "29.8387",
        "longitude": "78.6755",
        "Status": "Remediation Not Proposed",
        "DumpsiteArea": "0.22",
        "DumpsiteCurrentHeight": "1",
        "WasteQuantity": "299.000"
      }
    },
    {
      "type": "Feature",
      "geometry": { "type": "Point", "coordinates": [78.5271, 29.7418] },
      "properties": {
        "State": "UTTARAKHAND",
        "ULB_City": "KOTDWARA",
        "latitude": "29.7418",
        "longitude": "78.5271",
        "Status": "Approvedbycentre",
        "DumpsiteArea": "0.56",
        "DumpsiteCurrentHeight": "8",
        "WasteQuantity": "16800.000"
      }
    },
    {
      "type": "Feature",
      "geometry": { "type": "Point", "coordinates": [78.3252, 30.1219] },
      "properties": {
        "State": "Uttarakhand",
        "ULB_City": "Swargashram Jonk",
        "latitude": "30.1219",
        "longitude": "78.3252",
        "Status": "Remediation Not Proposed",
        "DumpsiteArea": "NA",
        "DumpsiteCurrentHeight": "NA",
        "WasteQuantity": "0.000"
      }
    },
    {
      "type": "Feature",
      "geometry": { "type": "Point", "coordinates": [80.2098, 29.5855] },
      "properties": {
        "State": "UTTARAKHAND",
        "ULB_City": "PITHORAGARH",
        "latitude": "29.5855",
        "longitude": "80.2098",
        "Status": "Takenupbystatefunding",
        "DumpsiteArea": "1.8",
        "WasteQuantity": "31500.000"
      }
    },
    {
      "type": "Feature",
      "geometry": { "type": "Point", "coordinates": [79.7813, 29.8172] },
      "properties": {
        "State": "UTTARAKHAND",
        "ULB_City": "BAGESHWAR",
        "latitude": "29.8172",
        "longitude": "79.7813",
        "Status": "Remediation Not Proposed",
        "DumpsiteArea": "0.00115",
        "DumpsiteCurrentHeight": "80",
        "WasteQuantity": "20548.000"
      }
    },
    {
      "type": "Feature",
      "geometry": { "type": "Point", "coordinates": [79.4648, 29.6641] },
      "properties": {
        "State": "UTTARAKHAND",
        "ULB_City": "RANIKHET CANTT",
        "latitude": "29.6641",
        "longitude": "79.4648",
        "Status": "Remediation Not Proposed",
        "DumpsiteArea": "3",
        "DumpsiteCurrentHeight": "1880",
        "WasteQuantity": "3600.000"
      }
    },
    {
      "type": "Feature",
      "geometry": { "type": "Point", "coordinates": [80.0779, 29.3312] },
      "properties": {
        "State": "UTTARAKHAND",
        "ULB_City": "CHAMPAWAT",
        "latitude": "29.3312",
        "longitude": "80.0779",
        "Status": "Remediation Not Proposed",
        "DumpsiteArea": "0.8",
        "WasteQuantity": "30.000"
      }
    },
    {
      "type": "Feature",
      "geometry": { "type": "Point", "coordinates": [80.1077, 29.4083] },
      "properties": {
        "State": "UTTARAKHAND",
        "ULB_City": "LOHAGHAT",
        "latitude": "29.4083",
        "longitude": "80.1077",
        "Status": "Remediation Not Proposed",
        "DumpsiteArea": "0.4",
        "WasteQuantity": "60.000"
      }
    },
    {
      "type": "Feature",
      "geometry": { "type": "Point", "coordinates": [79.5317, 29.2018] },
      "properties": {
        "State": "UTTARAKHAND",
        "ULB_City": "HALDWANI",
        "latitude": "29.2018",
        "longitude": "79.5317",
        "Status": "Approvedbycentre",
        "DumpsiteArea": "2.59",
        "DumpsiteCurrentHeight": "4",
        "WasteQuantity": "207200.000"
      }
    },
    {
      "type": "Feature",
      "geometry": { "type": "Point", "coordinates": [79.1319, 29.3822] },
      "properties": {
        "State": "UTTARAKHAND",
        "ULB_City": "RAMNAGAR_U",
        "latitude": "29.3822",
        "longitude": "79.1319",
        "Status": "Remediation Not Proposed",
        "DumpsiteArea": "0.14",
        "DumpsiteCurrentHeight": "0.0",
        "WasteQuantity": "21630.000"
      }
    },
    {
      "type": "Feature",
      "geometry": { "type": "Point", "coordinates": [79.3496, 29.2812] },
      "properties": {
        "State": "UTTARAKHAND",
        "ULB_City": "KALADHUNGI",
        "latitude": "29.2812",
        "longitude": "79.3496",
        "Status": "On-Going",
        "DumpsiteArea": "1",
        "DumpsiteCurrentHeight": "2",
        "WasteQuantity": "104.000"
      }
    },
    {
      "type": "Feature",
      "geometry": { "type": "Point", "coordinates": [78.951, 29.2385] },
      "properties": {
        "State": "UTTARAKHAND",
        "ULB_City": "KASHIPUR",
        "latitude": "29.2385",
        "longitude": "78.951",
        "Status": "Approvedbycentre",
        "DumpsiteArea": "1.04",
        "DumpsiteCurrentHeight": "7.8",
        "WasteQuantity": "83200.000"
      }
    },
    {
      "type": "Feature",
      "geometry": { "type": "Point", "coordinates": [78.7884, 29.2817] },
      "properties": {
        "State": "UTTARAKHAND",
        "ULB_City": "MAHUADABRA",
        "latitude": "29.2817",
        "longitude": "78.7884",
        "DumpsiteArea": "0.5",
        "DumpsiteCurrentHeight": "1",
        "WasteQuantity": "1.000"
      }
    },
    {
      "type": "Feature",
      "geometry": { "type": "Point", "coordinates": [79.3996, 28.9783] },
      "properties": {
        "State": "UTTARAKHAND",
        "ULB_City": "RUDRAPUR",
        "latitude": "28.9783",
        "longitude": "79.3996",
        "Status": "Remediation Not Proposed",
        "DumpsiteArea": "4.32",
        "DumpsiteCurrentHeight": "12",
        "WasteQuantity": "35000.000"
      }
    },
    {
      "type": "Feature",
      "geometry": { "type": "Point", "coordinates": [79.83, 28.93] },
      "properties": {
        "State": "UTTARAKHAND",
        "ULB_City": "NANAKAMTTA",
        "latitude": "28.93",
        "longitude": "79.83",
        "Status": "Remediation Not Proposed",
        "DumpsiteArea": "2",
        "DumpsiteCurrentHeight": "5",
        "WasteQuantity": "3500.000"
      }
    },
    {
      "type": "Feature",
      "geometry": { "type": "Point", "coordinates": [77.8799, 29.8725] },
      "properties": {
        "State": "UTTARAKHAND",
        "ULB_City": "ROORKEE (NN)",
        "latitude": "29.8725",
        "longitude": "77.8799",
        "Status": "Approvedbycentre",
        "DumpsiteArea": "5.97",
        "DumpsiteCurrentHeight": "8",
        "WasteQuantity": "160873.000"
      }
    },
    {
      "type": "Feature",
      "geometry": { "type": "Point", "coordinates": [78.0352, 29.7609] },
      "properties": {
        "State": "UTTARAKHAND",
        "ULB_City": "LAKSAR",
        "latitude": "29.7609",
        "longitude": "78.0352",
        "Status": "Remediation Not Proposed",
        "DumpsiteArea": "1.0",
        "DumpsiteCurrentHeight": "1.5",
        "WasteQuantity": "2546.000"
      }
    },
    {
      "type": "Feature",
      "geometry": { "type": "Point", "coordinates": [76.8908, 30.6789] },
      "properties": {
        "State": "HARYANA",
        "ULB_City": "PANCHKULA",
        "latitude": "30.6789",
        "longitude": "76.8908",
        "Status": "Remediation Not Proposed",
        "DumpsiteArea": "13.24",
        "DumpsiteCurrentHeight": "1",
        "WasteQuantity": "90837.000"
      }
    },
    {
      "type": "Feature",
      "geometry": { "type": "Point", "coordinates": [76.8814, 30.682] },
      "properties": {
        "State": "HARYANA",
        "ULB_City": "PANCHKULA",
        "latitude": "30.682",
        "longitude": "76.8814",
        "Status": "Remediation Not Proposed",
        "DumpsiteArea": "10.5",
        "DumpsiteCurrentHeight": "6",
        "WasteQuantity": "304646.000"
      }
    },
    {
      "type": "Feature",
      "geometry": { "type": "Point", "coordinates": [76.9616, 30.4409] },
      "properties": {
        "State": "HARYANA",
        "ULB_City": "AMBALA",
        "latitude": "30.4409",
        "longitude": "76.9616",
        "Status": "On-Going",
        "DumpsiteArea": "17.09",
        "DumpsiteCurrentHeight": "6",
        "WasteQuantity": "543805.000"
      }
    },
    {
      "type": "Feature",
      "geometry": { "type": "Point", "coordinates": [76.9616, 30.4411] },
      "properties": {
        "State": "HARYANA",
        "ULB_City": "AMBALA SADAR (M Cl)",
        "latitude": "30.4411",
        "longitude": "76.9616",
        "Status": "Remediation Not Proposed",
        "DumpsiteArea": "0.00",
        "WasteQuantity": "0.000"
      }
    },
    {
      "type": "Feature",
      "geometry": { "type": "Point", "coordinates": [77.0402, 30.212] },
      "properties": {
        "State": "HARYANA",
        "ULB_City": "BARARA",
        "latitude": "30.212",
        "longitude": "77.0402",
        "Status": "Remediation Not Proposed",
        "DumpsiteArea": "6.0",
        "DumpsiteCurrentHeight": "1.5",
        "WasteQuantity": "9800.000"
      }
    },
    {
      "type": "Feature",
      "geometry": { "type": "Point", "coordinates": [77.2477, 30.1882] },
      "properties": {
        "State": "HARYANA",
        "ULB_City": "YAMUNANAGAR (M CL)",
        "latitude": "30.1882",
        "longitude": "77.2477",
        "Status": "Approvedbycentre",
        "DumpsiteArea": "4",
        "DumpsiteCurrentHeight": "2",
        "WasteQuantity": "66000.000"
      }
    },
    {
      "type": "Feature",
      "geometry": { "type": "Point", "coordinates": [77.2477, 30.1882] },
      "properties": {
        "State": "HARYANA",
        "ULB_City": "YAMUNANAGAR (M CL)",
        "latitude": "30.1882",
        "longitude": "77.2477",
        "Status": "Completed",
        "DumpsiteArea": "8",
        "DumpsiteCurrentHeight": "2",
        "WasteQuantity": "126001.000"
      }
    },
    {
      "type": "Feature",
      "geometry": { "type": "Point", "coordinates": [77.1493, 30.0272] },
      "properties": {
        "State": "HARYANA",
        "ULB_City": "RADAUR (MC)",
        "latitude": "30.0272",
        "longitude": "77.1493",
        "Status": "Completed",
        "DumpsiteArea": "1",
        "DumpsiteCurrentHeight": "0.5",
        "WasteQuantity": "0.000"
      }
    },
    {
      "type": "Feature",
      "geometry": { "type": "Point", "coordinates": [76.87, 29.96] },
      "properties": {
        "State": "HARYANA",
        "ULB_City": "THANESAR (M CL)",
        "latitude": "29.96",
        "longitude": "76.87",
        "Status": "Remediation Not Proposed",
        "DumpsiteArea": "5",
        "DumpsiteCurrentHeight": "1.5",
        "WasteQuantity": "800.000"
      }
    },
    {
      "type": "Feature",
      "geometry": { "type": "Point", "coordinates": [77.0466, 30.0004] },
      "properties": {
        "State": "HARYANA",
        "ULB_City": "LADWA",
        "latitude": "30.0004",
        "longitude": "77.0466",
        "Status": "Approvedbycentre",
        "DumpsiteArea": "4",
        "DumpsiteCurrentHeight": "5",
        "WasteQuantity": "16100.000"
      }
    },
    {
      "type": "Feature",
      "geometry": { "type": "Point", "coordinates": [76.398, 29.803] },
      "properties": {
        "State": "HARYANA",
        "ULB_City": "KAITHAL",
        "latitude": "29.803",
        "longitude": "76.398",
        "Status": "Approvedbycentre",
        "DumpsiteArea": "2",
        "DumpsiteCurrentHeight": "3",
        "WasteQuantity": "70000.000"
      }
    },
    {
      "type": "Feature",
      "geometry": { "type": "Point", "coordinates": [76.3876, 29.8206] },
      "properties": {
        "State": "HARYANA",
        "ULB_City": "KAITHAL",
        "latitude": "29.8206",
        "longitude": "76.3876",
        "Status": "Completed",
        "DumpsiteArea": "3",
        "DumpsiteCurrentHeight": "3.5",
        "WasteQuantity": "98000.000"
      }
    },
    {
      "type": "Feature",
      "geometry": { "type": "Point", "coordinates": [76.2545, 29.6727] },
      "properties": {
        "State": "HARYANA",
        "ULB_City": "KALAYAT",
        "latitude": "29.6727",
        "longitude": "76.2545",
        "Status": "On-Going",
        "DumpsiteArea": "1",
        "DumpsiteCurrentHeight": "2.5",
        "WasteQuantity": "15000.000"
      }
    },
    {
      "type": "Feature",
      "geometry": { "type": "Point", "coordinates": [76.255, 29.675] },
      "properties": {
        "State": "HARYANA",
        "ULB_City": "KALAYAT",
        "latitude": "29.675",
        "longitude": "76.255",
        "Status": "Approvedbycentre",
        "DumpsiteArea": "1.5",
        "DumpsiteCurrentHeight": "2.5",
        "WasteQuantity": "15000.000"
      }
    },
    {
      "type": "Feature",
      "geometry": { "type": "Point", "coordinates": [76.5281, 29.7464] },
      "properties": {
        "State": "HARYANA",
        "ULB_City": "PUNDRI",
        "latitude": "29.7464",
        "longitude": "76.5281",
        "Status": "Approvedbycentre",
        "DumpsiteArea": "1",
        "DumpsiteCurrentHeight": "2",
        "WasteQuantity": "4100.000"
      }
    },
    {
      "type": "Feature",
      "geometry": { "type": "Point", "coordinates": [76.3258, 29.8829] },
      "properties": {
        "State": "HARYANA",
        "ULB_City": "SIWAN",
        "latitude": "29.8829",
        "longitude": "76.3258",
        "Status": "Remediation Not Proposed",
        "DumpsiteArea": "2",
        "DumpsiteCurrentHeight": "1",
        "WasteQuantity": "4726.000"
      }
    },
    {
      "type": "Feature",
      "geometry": { "type": "Point", "coordinates": [76.9419, 29.8328] },
      "properties": {
        "State": "HARYANA",
        "ULB_City": "NILOKHERI",
        "latitude": "29.8328",
        "longitude": "76.9419",
        "Status": "Completed",
        "DumpsiteArea": "2.02",
        "DumpsiteCurrentHeight": "3",
        "WasteQuantity": "11000.000"
      }
    },
    {
      "type": "Feature",
      "geometry": { "type": "Point", "coordinates": [76.9257, 29.8116] },
      "properties": {
        "State": "HARYANA",
        "ULB_City": "TARAORI",
        "latitude": "29.8116",
        "longitude": "76.9257",
        "Status": "Completed",
        "DumpsiteArea": "5",
        "DumpsiteCurrentHeight": "2.5",
        "WasteQuantity": "8766.000"
      }
    },
    {
      "type": "Feature",
      "geometry": { "type": "Point", "coordinates": [77.0498, 29.8726] },
      "properties": {
        "State": "HARYANA",
        "ULB_City": "INDRI",
        "latitude": "29.8726",
        "longitude": "77.0498",
        "Status": "Completed",
        "DumpsiteArea": "2",
        "DumpsiteCurrentHeight": "1",
        "WasteQuantity": "3000.000"
      }
    },
    {
      "type": "Feature",
      "geometry": { "type": "Point", "coordinates": [77.003, 29.6597] },
      "properties": {
        "State": "HARYANA",
        "ULB_City": "KARNAL",
        "latitude": "29.6597",
        "longitude": "77.003",
        "Status": "On-Going",
        "DumpsiteArea": "8",
        "DumpsiteCurrentHeight": "6",
        "WasteQuantity": "95022.000"
      }
    },
    {
      "type": "Feature",
      "geometry": { "type": "Point", "coordinates": [76.7499, 29.6979] },
      "properties": {
        "State": "HARYANA",
        "ULB_City": "NISSING",
        "latitude": "29.6979",
        "longitude": "76.7499",
        "Status": "Completed",
        "DumpsiteArea": "2.00",
        "DumpsiteCurrentHeight": "5",
        "WasteQuantity": "15000.000"
      }
    },
    {
      "type": "Feature",
      "geometry": { "type": "Point", "coordinates": [76.6164, 29.5303] },
      "properties": {
        "State": "HARYANA",
        "ULB_City": "ASSANDH (MC)",
        "latitude": "29.5303",
        "longitude": "76.6164",
        "Status": "Completed",
        "DumpsiteArea": "1",
        "DumpsiteCurrentHeight": "1",
        "WasteQuantity": "15300.000"
      }
    },
    {
      "type": "Feature",
      "geometry": { "type": "Point", "coordinates": [76.964, 29.45] },
      "properties": {
        "State": "HARYANA",
        "ULB_City": "GHARAUNDA",
        "latitude": "29.45",
        "longitude": "76.964",
        "Status": "Completed",
        "DumpsiteArea": "1",
        "DumpsiteCurrentHeight": "3",
        "WasteQuantity": "20236.000"
      }
    },
    {
      "type": "Feature",
      "geometry": { "type": "Point", "coordinates": [76.9605, 29.3715] },
      "properties": {
        "State": "HARYANA",
        "ULB_City": "PANIPAT (M CL)",
        "latitude": "29.3715",
        "longitude": "76.9605",
        "Status": "Remediation Not Proposed",
        "DumpsiteArea": "3",
        "WasteQuantity": "100.000"
      }
    },
    {
      "type": "Feature",
      "geometry": { "type": "Point", "coordinates": [77.0376, 29.3823] },
      "properties": {
        "State": "HARYANA",
        "ULB_City": "PANIPAT (M CL)",
        "latitude": "29.3823",
        "longitude": "77.0376",
        "Status": "Completed",
        "DumpsiteArea": "8",
        "DumpsiteCurrentHeight": "5",
        "WasteQuantity": "409000.000"
      }
    },
    {
      "type": "Feature",
      "geometry": { "type": "Point", "coordinates": [77.0238, 29.2452] },
      "properties": {
        "State": "HARYANA",
        "ULB_City": "SAMALKHA",
        "latitude": "29.2452",
        "longitude": "77.0238",
        "Status": "Remediation Not Proposed",
        "DumpsiteArea": "1"
      }
    },
    {
      "type": "Feature",
      "geometry": { "type": "Point", "coordinates": [76.6775, 29.1165] },
      "properties": {
        "State": "HARYANA",
        "ULB_City": "GOHANA",
        "latitude": "29.1165",
        "longitude": "76.6775",
        "Status": "Approvedbycentre",
        "DumpsiteArea": "3.5",
        "DumpsiteCurrentHeight": "7.5",
        "WasteQuantity": "77000.000"
      }
    },
    {
      "type": "Feature",
      "geometry": { "type": "Point", "coordinates": [77.0201, 29.1451] },
      "properties": {
        "State": "HARYANA",
        "ULB_City": "GANAUR",
        "latitude": "29.1451",
        "longitude": "77.0201",
        "Status": "Approvedbycentre",
        "DumpsiteArea": "4",
        "DumpsiteCurrentHeight": "4.5",
        "WasteQuantity": "20000.000"
      }
    },
    {
      "type": "Feature",
      "geometry": { "type": "Point", "coordinates": [77.0569, 29.037] },
      "properties": {
        "State": "HARYANA",
        "ULB_City": "SONIPAT",
        "latitude": "29.037",
        "longitude": "77.0569",
        "Status": "Approvedbycentre",
        "DumpsiteArea": "10",
        "DumpsiteCurrentHeight": "0.5",
        "WasteQuantity": "300000.000"
      }
    },
    {
      "type": "Feature",
      "geometry": { "type": "Point", "coordinates": [76.9017, 28.8708] },
      "properties": {
        "State": "HARYANA",
        "ULB_City": "KHARKHODA",
        "latitude": "28.8708",
        "longitude": "76.9017",
        "Status": "On-Going",
        "DumpsiteArea": "2",
        "DumpsiteCurrentHeight": "1.22",
        "WasteQuantity": "24000.000"
      }
    },
    {
      "type": "Feature",
      "geometry": { "type": "Point", "coordinates": [77.0759, 28.513] },
      "properties": {
        "State": "HARYANA",
        "ULB_City": "KUNDLI",
        "latitude": "28.513",
        "longitude": "77.0759",
        "Status": "Remediation Not Proposed",
        "DumpsiteArea": "1",
        "DumpsiteCurrentHeight": "1",
        "WasteQuantity": "100.000"
      }
    },
    {
      "type": "Feature",
      "geometry": { "type": "Point", "coordinates": [76.1247, 29.5956] },
      "properties": {
        "State": "HARYANA",
        "ULB_City": "NARWANA",
        "latitude": "29.5956",
        "longitude": "76.1247",
        "Status": "Approvedbycentre",
        "DumpsiteArea": "4.9",
        "DumpsiteCurrentHeight": "4.5",
        "WasteQuantity": "87561.000"
      }
    },
    {
      "type": "Feature",
      "geometry": { "type": "Point", "coordinates": [76.1813, 29.4703] },